"","State","FIPS_Codes","County","number_2004","number_2005","number_2006","number_2007","number_2008","number_2009","number_2010","number_2011","number_2012","percent_2004","percent_2005","percent_2006","percent_2007","percent_2008","percent_2009","percent_2010","percent_2011","percent_2012","Lat","Long"
"1","Alabama","01001","Autauga County",10690,10690,11210,11690,11760,11364,11310,10974,11310,31.9,31,31.5,33,32.7,32.2,29.4,27.9,28.7,32.536382,-86.64449
"2","Alabama","01003","Baldwin County",31400,31440,33360,31300,32740,33702,37735,35217,36100,26.8,25.8,26.2,24.5,25.2,25.1,27.6,25.2,25.2,30.659218,-87.746067
"3","Alabama","01005","Barbour County",7168,7523,7242,7097,7657,7633,7271,6744,6829,34.3,36.1,34.8,34,34.9,34.2,35,32.3,32.9,31.87067,-85.405456
"4","Alabama","01007","Bibb County",4428,4978,5627,5741,5890,5962,6341,5722,5730,28.4,31.5,35.4,36,36.6,37.2,37,33.2,33.2,33.015893,-87.127148
"5","Alabama","01009","Blount County",12010,12430,12670,13420,14680,15396,14633,12626,12130,29.8,30.3,30.3,32.2,34.6,35.9,35,29.8,28.5,33.977448,-86.567246
"6","Alabama","01011","Bullock County",2873,2862,2606,2542,2585,2462,2659,2657,2719,35.2,35.4,32.5,31.8,32.2,30.9,32.5,32.8,33.1,32.101759,-85.717261
"7","Alabama","01013","Butler County",4834,4629,4972,5050,5164,5320,5678,5702,5271,32.4,30.9,33.2,34.3,35,36.6,36.9,37.3,34.4,31.751667,-86.681969
"8","Alabama","01015","Calhoun County",25820,27000,26930,26990,27000,28546,29178,29098,29470,31.2,32.5,32.2,32.3,32.2,33.9,33.3,33.2,33.6,33.771706,-85.822513
"9","Alabama","01017","Chambers County",8428,8570,8955,8731,9224,9248,9938,9037,9018,32.3,32.9,34.6,33.9,36,35.8,38.7,35.3,34.8,32.917943,-85.391812
"10","Alabama","01019","Cherokee County",6552,7102,7390,6989,6904,6763,6779,5957,6225,35,37.7,38.7,37.1,36.5,35.9,34.2,29.8,31,34.069515,-85.654242
"11","Alabama","01021","Chilton County",9536,9811,10080,10050,10000,9718,9982,10152,10250,31.5,32.1,32.7,32.4,32.1,30.9,31.5,31.8,32,32.854059,-86.726627
"12","Alabama","01023","Choctaw County",3667,3572,3630,3308,3634,3639,3942,3579,3493,33.2,32.9,33.5,31.1,34.2,35,37.9,34.8,33.8,31.991008,-88.248887
"13","Alabama","01025","Clarke County",6435,6100,5892,6013,6921,7117,6923,5778,5630,33.4,31.7,30.2,31.5,36.2,38,37,31,30.2,31.685521,-87.818624
"14","Alabama","01027","Clay County",3312,3276,3640,3863,3836,3902,4119,3863,3689,31.3,31,34.5,36.4,36.1,37.5,39.4,37.6,36.2,33.267809,-85.862051
"15","Alabama","01029","Cleburne County",3294,3313,3426,3509,3530,3681,3829,3783,3692,30.4,30.5,31.1,31.9,31.8,33.5,34.7,34.1,33.2,33.671981,-85.516109
"16","Alabama","01031","Coffee County",9449,9997,11220,10480,10630,10261,11276,11013,11140,28.5,29.8,33,30.4,30.2,28.6,30.6,29.7,29.4,31.402183,-85.989201
"17","Alabama","01033","Colbert County",13130,13540,12640,13970,13440,14323,12599,13150,12260,32.1,33,30.6,33.9,32.4,34.7,30.7,31.9,29.7,34.703112,-87.801457
"18","Alabama","01035","Conecuh County",3438,3326,3496,3327,3481,3473,3657,3488,3286,35.3,34.3,35.4,34,35.6,36.1,37.3,35.4,33.5,31.428292,-86.992029
"19","Alabama","01037","Coosa County",2781,2788,2899,2981,2949,2857,2793,2750,2660,32.9,33.2,34.6,35.7,35.2,34.8,31.8,31.9,30.8,32.931445,-86.243482
"20","Alabama","01039","Covington County",7962,9080,9677,9664,10320,10276,10909,10762,10180,28.9,32.7,34.6,34.8,37.2,37.3,38.5,37.5,35.5,31.243987,-86.448721
"21","Alabama","01041","Crenshaw County",3044,3171,3137,3152,3190,3388,3456,3337,3294,30.1,31.3,30.7,30.8,31.1,33.5,33.9,32.3,31.6,31.732826,-86.319222
"22","Alabama","01043","Cullman County",16680,17310,18770,18540,19100,17892,18812,18491,17170,28.4,29.2,31.4,30.9,31.5,29.4,31.5,30.8,28.4,34.131923,-86.869267
"23","Alabama","01045","Dale County",11270,11720,10550,9973,9929,10943,11381,11202,10290,32.6,34.3,31,29.4,29.1,31.3,31.1,30.5,27.8,31.430654,-85.609476
"24","Alabama","01047","Dallas County",9931,10090,10680,10700,10520,9980,10681,10166,10450,32.3,33,35,35.5,34.8,34,34.5,33.2,34.2,32.33354,-87.114356
"25","Alabama","01049","DeKalb County",17250,18020,17120,15920,15250,13781,15932,15112,16700,35.1,36.5,34.4,32,30.5,27.5,31.3,29.4,32.4,34.460929,-85.803992
"26","Alabama","01051","Elmore County",14630,16030,17070,17430,17030,18398,18133,18093,17710,28,29.7,30.7,30.9,29.9,31.7,30.9,30.5,29.7,32.597229,-86.142738
"27","Alabama","01053","Escambia County",8728,8625,9423,9026,9570,10463,11072,10695,9575,30.9,30.7,33.6,32.3,34.4,37.6,38.7,37.4,33.4,31.121747,-87.168429
"28","Alabama","01055","Etowah County",24310,26090,27650,28100,27880,26313,26282,25105,25430,31.8,34,35.9,36.6,36.2,34.2,33.8,32.2,32.5,34.047638,-86.03442
"29","Alabama","01057","Fayette County",5051,4772,4657,4445,4451,4268,4139,3938,3938,37.3,35,34.4,33.3,33.2,32.7,32.1,30.6,30.5,33.732249,-87.752049
"30","Alabama","01059","Franklin County",6234,6645,7724,7522,7933,8379,8598,7727,8053,27.7,29.4,34,33.6,35.1,37.2,37.4,33.4,34.8,34.441988,-87.842815
"31","Alabama","01061","Geneva County",5713,5839,6667,6776,7224,6976,6951,6334,6223,29.8,30.3,34.2,34.8,36.8,35.3,34.5,31.3,30.5,31.090866,-85.824346
"32","Alabama","01063","Greene County",2391,2479,2386,2423,2459,2404,2376,2157,2165,35.5,36.6,36,36.6,37,38,36.5,32.9,33.1,32.844497,-87.9642
"33","Alabama","01065","Hale County",4680,4802,4803,4653,4816,4634,4359,3894,4009,36.4,36.9,36.7,35.5,36.4,35.6,38.3,34.6,35.3,32.752796,-87.623061
"34","Alabama","01067","Henry County",4212,4277,4072,3818,3858,3842,3946,3898,3777,34.2,34.4,32.4,30.6,30.8,30.9,30.3,29.8,28.8,31.516978,-85.239971
"35","Alabama","01069","Houston County",19800,21660,19830,22190,22290,24254,24586,22604,23200,29.5,31.7,28.4,31.5,31.1,33.1,33.1,30.1,30.5,31.158193,-85.296398
"36","Alabama","01071","Jackson County",14010,13210,12960,12340,12120,11963,12858,13234,12880,35,33,32.2,30.9,30.3,30.1,32.3,32.9,32,34.763522,-85.9774
"37","Alabama","01073","Jefferson County",141000,137600,136900,136900,140300,142861,145373,135032,138000,29.4,28.7,28.6,28.4,29,29.2,29.9,27.7,28.3,33.553444,-86.896536
"38","Alabama","01075","Lamar County",3212,3154,3559,3510,3752,3858,4095,3864,3601,28.3,28,32.2,31.7,34.1,35.6,37.3,35.5,33.1,33.787085,-88.087431
"39","Alabama","01077","Lauderdale County",18390,18670,20240,21090,22370,22326,22714,20719,20780,28.1,28.3,30.4,31.4,33.1,32.7,32.6,29.5,29.6,34.904122,-87.650997
"40","Alabama","01079","Lawrence County",7766,8014,8022,8231,7839,9162,8881,9179,8850,30.8,31.5,31.6,32.2,30.8,36,34.8,36.1,34.9,34.529776,-87.321865
"41","Alabama","01081","Lee County",21800,24620,24830,25610,24640,26754,26758,25212,25130,25.5,28,27.6,27.4,25.8,27.4,26.4,24.1,23.2,32.604064,-85.353048
"42","Alabama","01083","Limestone County",15760,15740,16070,16770,17720,18208,18590,19675,20460,30.9,30.2,29.8,30.7,31.5,31.3,30.3,31,31.6,34.810239,-86.981399
"43","Alabama","01085","Lowndes County",3206,3302,3100,3197,3181,3356,2951,2599,2465,35.7,36.7,34.6,35.4,35.1,38.1,36,32.1,30.8,32.147888,-86.650586
"44","Alabama","01087","Macon County",5821,5587,5612,5281,5376,4943,5206,4999,4718,36.1,35,35.1,33,33.5,31.4,33,32,31.1,32.387027,-85.692887
"45","Alabama","01089","Madison County",55430,56650,62820,60140,63370,60218,64762,61392,62560,26.1,26.1,28.3,26.5,27.3,25.2,26.3,24.6,24.6,34.764238,-86.55108
"46","Alabama","01091","Marengo County",5086,5297,5256,5353,5399,5302,5238,5122,5205,33.1,34.5,34.1,35.2,35.6,35.4,34.4,33.8,34.7,32.247591,-87.791091
"47","Alabama","01093","Marion County",7719,7499,8099,7555,8169,7902,9903,8537,8353,33.6,32.7,35.1,33.3,36.1,35.6,42.3,36.6,35.7,34.138219,-87.881551
"48","Alabama","01095","Marshall County",19760,21720,22430,21190,21000,20792,23676,21797,21720,32,34.8,35.4,33.5,33,32.3,35.1,32,31.6,34.309564,-86.321668
"49","Alabama","01097","Mobile County",88400,87290,84320,87060,89230,89871,91316,86543,89190,31.4,30.9,29.5,30.4,31,30.6,30.7,28.9,29.6,30.684573,-88.196568
"50","Alabama","01099","Monroe County",6005,5915,6156,5216,5025,5130,5713,5603,5313,36.1,35.5,37.1,32,30.9,31.8,34.6,33.9,32.1,31.580332,-87.383266
"51","Alabama","01101","Montgomery County",45810,45210,42590,44970,44870,47466,48651,46761,46170,29.3,29,27,28.2,28.2,29.6,29.3,28.1,28,32.20365,-86.203831
"52","Alabama","01103","Morgan County",21140,22180,21920,21990,23150,23300,26484,25516,27250,25.6,26.5,25.8,26,27,27.2,30.1,28.8,30.5,34.454484,-86.846402
"53","Alabama","01105","Perry County",2683,2658,2455,2341,2415,2492,2487,2494,2344,35.5,35.4,33,32.6,33.4,34.5,33.5,33.6,32.6,32.639005,-87.293827
"54","Alabama","01107","Pickens County",4913,5129,4902,4834,4930,4750,5068,4586,4886,34,35.5,33.8,33.7,34.3,33.4,34.7,31.7,33.6,33.296808,-88.096878
"55","Alabama","01109","Pike County",6813,7091,6716,7036,7273,7190,7873,7208,7077,32.2,33.2,31.2,32.3,33,32.4,32.6,29.4,28.5,31.798726,-85.941997
"56","Alabama","01111","Randolph County",5292,4963,4468,4719,5179,5835,5866,5692,5162,32.1,30,26.9,28.6,31,34.8,34.9,33.8,30.6,33.296475,-85.464068
"57","Alabama","01113","Russell County",11690,11760,11630,11990,13240,13686,13426,12932,12970,33.1,33.1,32.3,33.2,36.3,36.9,35.2,32.6,31.1,32.289811,-85.18698
"58","Alabama","01115","St. Clair County",14640,15250,15130,16870,18760,21463,21073,18204,18130,28.3,28.5,27,29.3,31.8,35.2,34,29.1,28.6,33.712963,-86.315663
"59","Alabama","01117","Shelby County",25370,26460,29890,29490,32660,32316,34638,31913,34430,21.4,21.5,23.3,22.8,24.4,23.5,24.5,22.2,23.6,33.262937,-86.678104
"60","Alabama","01119","Sumter County",3208,3222,3091,3080,3164,3030,3145,3108,3107,33.1,33.6,32.4,32.1,32.8,32.8,31.2,31.2,31.2,32.597481,-88.200057
"61","Alabama","01121","Talladega County",19520,18690,20220,19760,20580,20881,21833,22312,20880,33.3,31.7,34.2,33.3,34.6,35.1,36,36.7,34.1,33.369277,-86.175805
"62","Alabama","01123","Tallapoosa County",9964,9745,9694,9562,9719,9538,10027,9643,10080,32.9,32.1,31.6,31.3,31.6,30.9,32.1,30.8,32.2,32.863369,-85.799553
"63","Alabama","01125","Tuscaloosa County",36930,37290,38490,37640,37980,38093,40552,40187,41210,30.5,30.4,30.9,29.3,29.2,28.7,28.5,27.9,28.2,33.290202,-87.52286
"64","Alabama","01127","Walker County",17860,17840,19610,19220,19360,19578,19317,17989,16900,34.3,34.1,37.4,37.3,37.4,37.9,38.4,35.8,33.8,33.791571,-87.301092
"65","Alabama","01129","Washington County",4208,4288,4192,4212,4325,4100,4053,3882,4195,33.6,34.1,33.3,33.7,34.4,32.8,32.1,30.9,33.3,31.406974,-88.202078
"66","Alabama","01131","Wilcox County",3002,3077,2898,2968,3027,2924,2692,2585,2639,34.8,35.4,33.2,34,34.3,34.7,33,31.6,32.3,31.99033,-87.302205
"67","Alabama","01133","Winston County",5630,6011,5831,5670,5790,6106,6523,6160,5673,30.6,32.5,31.4,30.9,31.8,33.6,35.1,33.3,30.6,34.155888,-87.364147
"68","Alaska","02013","Aleutians East Borough",552.1,577,533.7,574.9,592.4,680,860,793,796,24.1,25,23.4,25.2,24.4,28.8,31.4,28.6,29,55.243722,-161.950749
"69","Alaska","02016","Aleutians West",982.7,1142,1192,1098,945.4,863,1087,1028,1125,21.3,25.1,26.5,26.6,24.3,22.6,23.4,22,23.9,NA,NA
"70","Alaska","02020","Anchorage Municipality",38250,39420,38540,41860,43900,44798,42864,38236,39130,20,20.4,19.6,21.2,22.1,22,20.5,18,18.2,61.177549,-149.274354
"71","Alaska","02050","Bethel Census Area",2692,2808,3134,3330,2958,2969,2899,3074,2861,27,27.7,30.7,32,29,28.2,28.3,29.2,26.7,60.928916,-160.15335
"72","Alaska","02060","Bristol Bay Borough",171.4,187.8,184.3,181.5,175.3,166,176,164,167,22.6,24.3,25.1,25.2,24.8,24.2,23.1,21.3,22.9,58.731372,-156.986612
"73","Alaska","02068","Denali Borough",330.3,315.6,338.4,348.6,375.4,294,284,238,252,22.7,22.6,23.5,24.2,26,21.2,20.4,16.9,17.6,63.682732,-150.026719
"74","Alaska","02070","Dillingham Census Area",742,790.4,804.3,849,820.3,898,892,868,815,24.5,25.6,25.7,26,25.6,27.9,28.8,27.3,25.5,59.824816,-158.602233
"75","Alaska","02090","Fairbanks North Star",11380,12270,12500,14400,14580,16061,15795,14387,14220,19.3,20.5,21,21.4,21.4,23.1,22.5,20.2,19.7,NA,NA
"76","Alaska","02100","Haines Borough",365,415,425.2,367.6,359.8,384,447,385,399,21.5,24.1,24.3,20.2,20,20.5,22.7,19.1,19.8,59.099905,-135.578102
"77","Alaska","02105","Hoonah-Angoon 2009 Census",NA,NA,NA,NA,NA,419,395,341,345,NA,NA,NA,NA,NA,25.3,23.6,20.8,20.7,NA,NA
"78","Alaska","02110","Juneau City and Borough",3200,3367,3674,4353,4207,4053,3953,3780,3937,14.2,14.9,16.2,18.9,18.1,17.7,17,15.8,16.3,58.3727,-134.178781
"79","Alaska","02122","Kenai Peninsula Borough",7812,8019,8027,8645,8981,9454,9690,9082,10050,21.4,21.6,21.1,22.2,22.7,23.6,23.7,21.7,23.7,60.366373,-152.321973
"80","Alaska","02130","Ketchikan Gateway Borough",1845,2071,2202,2747,2668,2646,2191,2084,2225,19.5,21.7,22.8,28.1,27.5,28,22,20.7,21.7,55.449938,-131.106685
"81","Alaska","02150","Kodiak Island Borough",1651,1725,1771,2030,2086,1881,1872,2050,1975,18.8,19.8,20,22.7,23.1,20.8,20,21.2,19.9,57.553611,-153.630911
"82","Alaska","02164","Lake and Peninsula Borough",258,253.2,264.4,285.7,275.3,309,306,278,259,25.3,24.8,26.1,28,27.7,30.5,28.1,24.9,23.3,58.205065,-156.705188
"83","Alaska","02170","Matanuska-Susitna Borough",10920,12190,11890,12190,13520,14791,15187,14085,14190,21.9,22.8,20.7,20.7,22,24.1,24.7,22.3,21.8,62.182174,-149.407974
"84","Alaska","02180","Nome Census Area",1544,1584,1622,1505,1471,1420,1511,1547,1656,26.7,27.3,28.4,25.6,25.3,23.7,25.5,25.2,26.9,64.783686,-164.188912
"85","Alaska","02185","North Slope Borough",1309,1268,1287,1374,1325,1376,1893,1782,1775,31.1,30.8,31.8,33.3,32.3,32.6,27.4,25.5,25.3,69.449343,-153.47283
"86","Alaska","02188","Northwest Arctic Borough",1056,1203,1203,1353,1309,1429,1366,1260,1247,24.5,27.6,26.9,30,29,31.5,29.9,26.8,26.3,67.005066,-160.021086
"87","Alaska","02195","Petersburg 2009 Census",NA,NA,NA,NA,NA,685,558,546,584,NA,NA,NA,NA,NA,24.1,19.6,19.1,20.3,NA,NA
"88","Alaska","02198","Prince of Wales-Hyder 2009 Census",NA,NA,NA,NA,NA,1006,1072,1085,1214,NA,NA,NA,NA,NA,24.8,26.4,26,29,NA,NA
"89","Alaska","02201","Prince of Wales-Outer K 2004 to 2008 Census",930.4,1096,1207,1115,1051,NA,NA,NA,NA,22.7,26.8,29,26.8,25.3,NA,NA,NA,NA,NA,NA
"90","Alaska","02220","Sitka City and Borough",1113,1170,1290,1403,1446,1269,1241,1146,1165,17.4,18,19.7,21,21.7,19.5,18.7,17.2,17.3,57.142508,-135.332624
"91","Alaska","02230","Skagway Municipality 2009 Census",NA,NA,NA,NA,NA,174,174,158,154,NA,NA,NA,NA,NA,23.5,21.7,20,18.5,NA,NA
"92","Alaska","02232","Hoonah-Angoon 2004 to 2008 Census",508.9,536.4,547,603.1,213.3,NA,NA,NA,NA,21.4,22.5,23,25.2,22.1,NA,NA,NA,NA,NA,NA
"93","Alaska","02240","Southeast Fairbanks Census",876.1,1059,1106,1111,1098,1160,1141,1016,1069,21.9,24.1,23.8,23.9,23.6,25.3,22.7,20,20.9,NA,NA
"94","Alaska","02261","Valdez-Cordova Census Area",1330,1488,1549,1745,1820,1705,1689,1721,1634,18.9,20.9,21.6,24.8,26,25.1,23.8,24.2,23.1,61.34984,-145.023141
"95","Alaska","02270","Wade Hampton Census Area",1236,1196,1142,1184,1212,1184,1105,1169,1179,31.4,30.1,28.1,28.3,28.8,27.6,27.2,27.9,27.6,62.283174,-163.19095
"96","Alaska","02275","Wrangell City and Borough 2009 Census",NA,NA,NA,NA,NA,424,451,386,392,NA,NA,NA,NA,NA,26.3,25,21.3,21.5,NA,NA
"97","Alaska","02280","Wrangell-Petersburg 2004 to 2008 Census",820,849.3,905,1048,1103,NA,NA,NA,NA,18.4,18.9,20.2,23.1,24.6,NA,NA,NA,NA,NA,NA
"98","Alaska","02282","Yakutat City and Borough",107.8,123,134.7,136.3,131.1,119,116,118,122,21.4,23.5,26,26.3,25.8,23.5,24,24.1,24.7,59.999083,-140.239593
"99","Alaska","02290","Yukon-Koyukuk Census Area",928.1,944.7,983,1053,1072,1052,1022,1026,1014,22.4,23,24.6,26,26.9,26.5,26.3,25.6,25.2,65.376131,-151.576855
"100","Arizona","04001","Apache County",10990,11880,13190,14300,13470,12606,11049,10537,10530,26.1,27.6,29.7,31.5,29.2,27.8,23.7,22.3,21.8,35.385845,-109.493747
"101","Arizona","04003","Cochise County",18940,19030,19330,20410,23090,22319,22868,21072,22490,21.5,21.1,21.1,22,24.6,23.7,23.4,21.4,23,31.881793,-109.75412
"102","Arizona","04005","Coconino County",13120,13260,14960,15840,15300,15010,15939,15224,15860,15.5,15.4,17.2,17.5,16.8,16.6,16.8,15.9,16.3,35.829692,-111.773728
"103","Arizona","04007","Gila County",10110,9650,11030,10280,10230,9780,10593,10331,10540,26.8,25.4,28.5,26.5,26.2,25.1,25.9,25.2,25.8,33.789618,-110.81187
"104","Arizona","04009","Graham County",4325,4477,5541,6378,6863,6988,6495,6170,5934,19.5,19.8,23.9,26.3,27,27.3,25.9,24.2,23.4,32.931828,-109.87831
"105","Arizona","04011","Greenlee County",992.2,997.5,1144,1425,1549,1363,1401,1442,1452,19.6,19.6,21.6,26.4,27.7,25.5,24.5,24.5,24.2,33.238872,-109.242323
"106","Arizona","04012","La Paz County",3563,3682,3929,5162,5263,5365,5220,5037,4950,22.8,23.2,24.5,32,32.6,33.8,31.8,30.7,30.3,33.727625,-114.038793
"107","Arizona","04013","Maricopa County",476000,497300,491800,517400,526000,542023,530809,539712,553500,19.4,19.5,18.6,19,19,19.2,19.6,19.6,19.6,33.346541,-112.495534
"108","Arizona","04015","Mohave County",32570,35890,38570,40640,42640,45104,49301,48354,50510,24,25.4,26.4,27.5,28.5,30.4,31.6,30.7,31.7,35.717705,-113.749689
"109","Arizona","04017","Navajo County",17270,16590,18050,18310,18260,18988,17345,17395,17680,25.3,23.5,24.7,24.7,24.2,25.4,24,23.9,24.1,35.390934,-110.320908
"110","Arizona","04019","Pima County",117000,124400,136000,142700,149900,149152,143116,139159,133800,17.8,18.5,19.7,20.2,20.2,19.8,19.8,18.9,18.1,32.128237,-111.783018
"111","Arizona","04021","Pinal County",35450,39000,44950,52370,56120,58009,62935,65068,72960,22,22.3,22.7,24.3,23.9,23.9,23,23.6,26.1,32.91891,-111.367257
"112","Arizona","04023","Santa Cruz County",4655,4634,4722,4710,4992,4983,5950,5605,6001,17.7,17,16.8,16.7,17.5,17.5,18.9,17.8,18.9,31.525904,-110.84519
"113","Arizona","04025","Yavapai County",30510,31440,36900,35220,36240,35337,35048,32826,34190,20.7,20.3,22.7,21.2,21.5,20.9,21.1,19.6,20.2,34.630044,-112.573745
"114","Arizona","04027","Yuma County",24850,27330,29750,31440,32030,32539,33884,34684,38830,21,22.3,23.4,24.1,24,24.4,25.1,25.1,27.6,32.773942,-113.910905
"115","Arkansas","05001","Arkansas County",4974,5046,5304,4891,5169,5141,5545,4977,5232,33.6,34.2,36.2,34,36.1,36.9,39.2,35.4,37.1,34.289573,-91.376547
"116","Arkansas","05003","Ashley County",5944,5879,6072,5783,5832,6144,5965,5294,5344,35.2,35.1,36.5,35.3,35.6,38.5,37.4,33.3,33.7,33.190835,-91.772267
"117","Arkansas","05005","Baxter County",8475,9001,9127,9462,10230,11111,10267,9882,10410,26.7,27.9,27.6,28.4,30.5,33,30.9,29.8,31.6,36.28071,-92.330438
"118","Arkansas","05007","Benton County",26690,29370,31240,36390,39310,44337,41382,39226,40530,20.9,22.1,22.4,25.6,26.9,27.9,26.6,24.6,24.8,36.337825,-94.256187
"119","Arkansas","05009","Boone County",8160,8708,8335,7979,7925,8766,9055,8599,9168,31,32.4,30.4,29,28.6,31.9,33,31,32.8,36.304308,-93.079204
"120","Arkansas","05011","Bradley County",2715,2745,2904,3010,3036,2891,2914,2950,3105,29.5,30,32,33.5,33.9,33.2,34.3,34.6,36.7,33.463819,-92.168164
"121","Arkansas","05013","Calhoun County",1289,1297,1283,1359,1407,1448,1473,1449,1498,31.3,30.8,30,31.8,33.2,36.8,36.4,35.2,35.7,33.56046,-92.513879
"122","Arkansas","05015","Carroll County",6491,6087,5618,6029,6252,5887,6335,6135,6889,32.9,30.2,27.5,29.4,30.2,27.9,30.5,29.5,33,36.337774,-93.541663
"123","Arkansas","05017","Chicot County",3279,3494,3518,3338,3126,3156,3078,3124,3250,34.7,37.3,37.9,37.1,35.3,36.4,35,35.9,38,33.267139,-91.297158
"124","Arkansas","05019","Clark County",4940,5204,5119,5480,5213,5287,5358,5156,5333,29.5,31.1,30.6,31.8,29.9,30.8,31.8,30.5,31.8,34.053312,-93.176205
"125","Arkansas","05021","Clay County",4328,4271,4390,4170,3992,4081,4398,4392,4790,34.3,34,35.1,34,32.9,34.5,36.5,36.4,40.3,36.367302,-90.418704
"126","Arkansas","05023","Cleburne County",5702,6095,6506,6310,6383,6436,6228,6742,7855,29.3,30.9,32.6,31.9,32.2,32.4,30.8,33.2,38.9,35.566288,-92.059974
"127","Arkansas","05025","Cleveland County",2236,2384,2331,2022,1929,1768,1821,1921,2038,34.9,36.4,35.5,31.1,29.9,28.4,28.7,30.2,32,33.893201,-92.188714
"128","Arkansas","05027","Columbia County",6071,5780,5664,5402,5384,5170,5418,5613,6111,33.8,32.5,31.9,30.3,30.3,29.7,30.4,31.3,34.5,33.21507,-93.226901
"129","Arkansas","05029","Conway County",5053,4763,4651,4621,4452,4579,4590,5167,5141,33.5,31.3,30.3,30.2,29,30.1,29.4,33.1,32.6,35.265702,-92.689248
"130","Arkansas","05031","Craighead County",17340,16580,18200,18920,19960,22083,23466,23705,24220,27.9,26.4,28.5,28.8,30,32,34.1,33.6,33.8,35.828268,-90.630411
"131","Arkansas","05033","Crawford County",11110,11120,12640,12620,13510,12803,14454,14407,14620,27.7,27.2,30.1,29.9,31.6,30,32.8,32.5,32.8,35.583041,-94.236224
"132","Arkansas","05035","Crittenden County",11460,11130,11010,11290,11650,12019,11319,11663,11900,33.4,32.2,31.6,32.3,32.9,33.3,32.6,33.6,34.4,35.211878,-90.315331
"133","Arkansas","05037","Cross County",4625,4699,4775,4696,4818,4814,4482,4598,4561,34.1,34.2,35,34.6,35.1,36,34.7,35.6,35.5,35.291259,-90.773894
"134","Arkansas","05039","Dallas County",2071,2048,2253,2286,2250,1999,2163,2259,2246,32.9,33,36.8,37.5,37.1,34.2,36,37.4,37.5,33.967823,-92.653999
"135","Arkansas","05041","Desha County",3311,3264,3319,3266,3369,3125,3145,3092,3150,32.9,32.7,33.3,33.3,34.6,32.8,33.9,33.9,34.9,33.828748,-91.244427
"136","Arkansas","05043","Drew County",4513,4404,4283,3873,3945,4487,4399,4345,4344,33.9,32.9,32.2,28.7,29.2,33.3,32.9,32,31.8,33.587242,-91.722778
"137","Arkansas","05045","Faulkner County",19760,20200,19440,18040,18540,21808,23913,24281,26010,29.4,29.2,27.2,24.5,24.6,28.4,29.2,28.9,30.3,35.146356,-92.324654
"138","Arkansas","05047","Franklin County",4008,3935,4341,4190,4532,4044,4242,4177,4412,30.4,29.4,32.1,31.1,33.6,30.7,32.2,31.6,33.4,35.508573,-93.887672
"139","Arkansas","05049","Fulton County",2591,2701,2788,2480,2581,2708,3430,3226,3126,28.5,29.6,30.6,27.3,28.5,30.2,36.5,33.9,32.9,36.383443,-91.819239
"140","Arkansas","05051","Garland County",18190,18420,19580,20900,21760,21268,19349,19686,21210,25.7,25.6,26.7,28.4,29.2,28.1,26.2,26.5,28.4,34.578861,-93.146915
"141","Arkansas","05053","Grant County",3855,3982,4160,4480,4539,4453,4142,4236,4357,30.4,30.9,31.8,34.4,34.3,33.9,31.5,32.1,32.7,34.288063,-92.423984
"142","Arkansas","05055","Greene County",9756,9118,9625,8711,9074,8223,10327,10919,12070,34.4,31.7,32.7,29.6,30.5,27.6,33.9,35.3,38.6,36.119922,-90.565241
"143","Arkansas","05057","Hempstead County",6080,5439,5274,4953,5242,5333,5222,5222,5683,36.6,32.6,31.4,29.6,31.6,32.2,32.4,32.4,35.5,33.728611,-93.665809
"144","Arkansas","05059","Hot Spring County",7437,7726,8038,8027,8118,8287,8302,9524,9431,32.5,33.1,34,33.7,34,34.9,34,38.7,37.4,34.315177,-92.944147
"145","Arkansas","05061","Howard County",3181,3093,3132,3105,3295,3438,3255,3394,3312,31,29.8,30.3,30.6,32.2,33.6,33.1,34.4,33.7,34.083179,-93.990988
"146","Arkansas","05063","Independence County",8580,8036,7672,7662,8234,8500,9615,9918,9889,33.5,31.3,29.6,29.8,32,33.4,35.7,36.6,36.5,35.737499,-91.559942
"147","Arkansas","05065","Izard County",3030,3266,3278,3212,3096,3270,3753,3606,3723,29.3,31.6,31.7,31.9,30.6,32.1,34.9,33.5,34.7,36.094879,-91.913625
"148","Arkansas","05067","Jackson County",4725,5088,5106,4714,4571,4524,5324,5309,5310,35.8,38.9,39.5,36.6,35.9,36.5,38.5,38.5,39,35.596605,-91.223178
"149","Arkansas","05069","Jefferson County",18640,18320,18800,19190,19570,19611,20498,20458,19890,31.9,31.6,32.6,33.9,34.6,34.5,36.4,36.8,36.4,34.277695,-91.930701
"150","Arkansas","05071","Johnson County",5456,5506,5626,5597,5591,5627,6332,6500,6926,31.6,31.4,31.6,31.3,31.1,31.3,34.4,35,37.1,35.573359,-93.466322
"151","Arkansas","05073","Lafayette County",2070,2086,2156,2056,2085,1905,1838,1894,1979,34.6,35.2,36.8,35,35.6,33.2,32.6,33.5,35,33.24066,-93.611643
"152","Arkansas","05075","Lawrence County",4410,4369,4472,4348,4505,4233,4225,4029,4783,34.3,34.3,35.6,34.6,35.7,33.8,32.8,31.3,37.7,36.041098,-91.101153
"153","Arkansas","05077","Lee County",2977,3126,3208,3156,3042,2949,2760,2669,2801,35,36.7,37.9,38,36.8,37.6,34.6,33.6,35.4,34.77975,-90.779288
"154","Arkansas","05079","Lincoln County",3213,3392,3475,3435,3419,3304,3382,3814,4188,29.2,30.8,31.6,31.9,31.8,31.2,30.7,33.8,37.3,33.957665,-91.727624
"155","Arkansas","05081","Little River County",3054,3079,3067,3200,3241,3131,3099,3265,3176,31.2,31.4,31.2,32.9,33.3,32.1,31.9,33.8,33.2,33.699497,-94.229774
"156","Arkansas","05083","Logan County",5632,5184,5245,5018,5189,5167,5843,5974,5878,33.7,30.9,31.1,30,31,31.5,35.9,36.6,36.1,35.218549,-93.720563
"157","Arkansas","05085","Lonoke County",11310,11450,12630,13490,14960,14529,13981,13269,15050,27.2,26.5,28,29.8,32,30.9,29,27.2,30.4,34.755114,-91.894132
"158","Arkansas","05087","Madison County",3399,3252,3298,2901,3153,3484,3597,3683,3771,31.7,29.5,28.9,25.4,27.1,29.6,31.2,31.8,32.7,36.012545,-93.724053
"159","Arkansas","05089","Marion County",3939,3866,4015,3733,3911,3731,3877,3966,4418,30.8,29.6,30.2,28.4,29.3,28.1,29.1,29.7,32.9,36.266656,-92.678588
"160","Arkansas","05091","Miller County",9586,9809,10480,10610,10990,11462,10359,10784,10580,31.3,31.6,33.4,34.3,35.2,35.7,32.5,33.6,32.9,33.305505,-93.901509
"161","Arkansas","05093","Mississippi County",13440,13210,12070,11660,12130,13713,13168,13709,12880,40.8,40.5,37.2,36.3,37.4,42.7,41.1,42.7,40.4,35.766943,-90.052209
"162","Arkansas","05095","Monroe County",2569,2366,2201,2076,2191,2240,2132,2274,2240,38.1,35.3,33.3,32.2,34.2,37.1,35.2,37.7,37.6,34.679513,-91.203314
"163","Arkansas","05097","Montgomery County",2243,2263,2202,2142,2119,1997,2053,2103,2342,32,31.9,30.9,31,30.6,28.9,28.2,28.9,32.2,34.545652,-93.664147
"164","Arkansas","05099","Nevada County",2284,2253,2232,2279,2340,2359,2286,2242,2277,32.6,32.2,32,32.7,34.2,34.8,34.5,33.8,34.3,33.666699,-93.305072
"165","Arkansas","05101","Newton County",1943,1678,1690,1618,1865,2114,2379,2385,2288,30.3,26.2,26.2,25.1,28.9,33.4,37.1,37.2,36.3,35.910062,-93.215084
"166","Arkansas","05103","Ouachita County",7207,6678,6398,6466,7229,6691,7183,6873,7248,36.2,33.7,32.6,33.5,37.6,35.6,37.1,35.9,38.3,33.591158,-92.878418
"167","Arkansas","05105","Perry County",2354,2591,2723,2812,2755,2614,2408,2485,2397,30.6,33.4,35,36.4,35.7,34.2,30.9,31.9,30.7,34.946363,-92.926877
"168","Arkansas","05107","Phillips County",5872,5858,5971,5761,5870,5493,5577,5260,5513,37,37.4,39.1,39.1,40.3,38.9,37.4,35.5,38,34.425842,-90.848386
"169","Arkansas","05109","Pike County",2467,2462,2504,2448,2396,2309,2298,2227,2662,30.3,30.3,30.8,30.1,29.6,28.9,27.9,27.2,32.3,34.158191,-93.658659
"170","Arkansas","05111","Poinsett County",6234,6544,6534,6697,6861,6820,6608,5915,6269,34.2,35.8,36,37.2,38.3,38.4,36.9,33,35,35.568981,-90.680595
"171","Arkansas","05113","Polk County",4155,4281,4566,4540,4557,4844,5010,5127,5227,28.2,28.9,30.4,30.4,30.4,32.4,32.8,33.5,34.3,34.490915,-94.230884
"172","Arkansas","05115","Pope County",10550,9743,10470,10880,11280,11146,12063,12516,12900,26.3,23.9,25.2,25.6,26.2,25.7,27,27.6,28.3,35.455297,-93.031535
"173","Arkansas","05117","Prairie County",2198,2373,2332,2049,1952,2105,2276,2252,2301,31.7,34.4,34,30.3,29.3,31.7,34.3,34.3,35.3,34.828225,-91.557199
"174","Arkansas","05119","Pulaski County",65020,70310,71580,72800,74990,80374,83210,77927,78830,24.7,26.7,27.1,27.1,27.7,28.9,29.5,27.3,27.5,34.773988,-92.316515
"175","Arkansas","05121","Randolph County",4965,4569,4499,3979,4099,4405,4373,4714,5350,36.1,33.1,32.4,29.2,29.9,33.1,32.8,35.1,39.8,36.341298,-91.028441
"176","Arkansas","05123","St. Francis County",6843,6691,6951,7511,7523,7612,7476,7595,7534,34.7,34.3,35.9,39.3,39.7,40.5,35.9,36.6,36.4,35.014438,-90.742199
"177","Arkansas","05125","Saline County",17780,17230,16740,16240,17710,18736,22768,22118,25250,27,25.4,23.8,22.8,24.3,25.6,28.8,27.3,30.6,34.648525,-92.674463
"178","Arkansas","05127","Scott County",2152,2279,2591,2675,2640,2677,2846,2517,2487,27.1,28.4,31.3,32.5,32,33.3,35.2,31.1,31.1,34.858869,-94.063641
"179","Arkansas","05129","Searcy County",1765,1768,1665,1744,1789,2083,2058,2042,2091,28.7,28.6,26.6,27.9,28.6,33.8,32.4,32.4,33.4,35.90966,-92.699351
"180","Arkansas","05131","Sebastian County",23140,23680,24200,27290,26720,30347,28456,30813,28770,27.5,27.9,28.1,31.3,30.6,34.4,31.5,33.6,31.1,35.196981,-94.274989
"181","Arkansas","05133","Sevier County",3417,3513,3343,3332,3540,3738,3656,3694,3892,30.9,31.2,29.7,29.7,31.4,33,31.6,31.7,33.2,33.994608,-94.24329
"182","Arkansas","05135","Sharp County",4076,4251,4422,4422,4432,4618,4081,4010,3818,30.5,31.5,32,32.1,32,34.1,31,30.3,29.2,36.173399,-91.471069
"183","Arkansas","05137","Stone County",2540,2663,2901,2938,2975,3388,3178,3027,3117,28.4,29.3,31.2,31.6,31.6,36.2,33,31,31.9,35.856989,-92.140494
"184","Arkansas","05139","Union County",10010,10190,10420,9565,9528,8779,9655,10930,11790,31,31.6,32.3,30.1,29.8,28.1,31.6,35.8,39.1,33.168219,-92.598145
"185","Arkansas","05141","Van Buren County",4268,4147,4467,4328,4669,4439,3928,3773,4477,33.6,32.3,34.4,33.8,36.2,35.1,29.3,28.3,33.7,35.582959,-92.515977
"186","Arkansas","05143","Washington County",25710,25510,26800,30120,33220,34485,36352,35428,38620,20.7,19.9,20.4,22.1,24.3,24.4,25.3,24.1,25.9,35.971209,-94.218417
"187","Arkansas","05145","White County",15440,14800,15330,14920,15720,15538,15484,15807,16840,30.2,28.5,29,28,28.9,28.3,27.7,28,29.5,35.254722,-91.753158
"188","Arkansas","05147","Woodruff County",1804,1885,1995,2175,2120,1952,1681,1832,1756,30.6,32.2,34.5,38.3,38,35.4,30.9,33.8,32.9,35.189071,-91.244418
"189","Arkansas","05149","Yell County",5352,5444,5227,5337,4914,4671,4536,5418,5800,34.9,35.3,33.1,34,31.1,29.4,28.7,34.4,36.7,34.997713,-93.408303
"190","California","06001","Alameda County",200100,183300,176500,173900,181100,183007,181280,172043,172400,18.9,17.3,16.6,16.1,16.7,16.5,16,15,14.7,37.648081,-121.913304
"191","California","06003","Alpine County",178.7,170.5,178.7,179.4,160.8,158,160,156,153,19.3,19.2,19.2,19.8,19.5,19.9,18,17.7,17.5,38.61761,-119.798999
"192","California","06005","Amador County",4937,5102,5400,5859,5713,5404,5292,5246,5226,16.5,16.6,17.2,18.7,18.3,17.7,17.2,17.2,17.1,38.44355,-120.653856
"193","California","06007","Butte County",29110,28120,29150,27510,27800,27425,27662,28036,29470,18.6,17.7,18.1,16.8,16.8,16.7,16.8,16.9,17.6,39.665959,-121.601919
"194","California","06009","Calaveras County",5877,5535,6103,7498,8389,7676,6306,6281,6187,16.6,15.1,16.2,20.2,22.5,20.9,17.7,17.6,17.4,38.187844,-120.555115
"195","California","06011","Colusa County",2449,2445,2580,2784,2635,2472,2278,2282,2375,17.8,17.3,17.8,19.2,18.3,17.5,15.8,15.9,16.3,39.177739,-122.237563
"196","California","06013","Contra Costa County",123100,123900,131300,141600,137200,132637,125635,128509,131200,17,16.9,17.7,19.1,18.2,17.6,16.4,16.5,16.6,37.919479,-121.951543
"197","California","06015","Del Norte County",4019,3762,3939,4243,4150,4052,3931,3939,3900,18.9,17.2,17.8,18.9,18.5,18.4,18,18.1,18.1,41.749903,-123.980998
"198","California","06017","El Dorado County",19170,23270,25100,21730,20350,19200,20567,19622,19910,15,17.7,18.7,16.4,15.2,14.6,15.2,14.4,14.5,38.785532,-120.534398
"199","California","06019","Fresno County",118400,114200,112600,122700,128700,127097,124570,115538,121600,20.7,19.6,19,20.4,21.2,20.8,20,18.3,19,36.761006,-119.655019
"200","California","06021","Glenn County",3327,3300,3627,3629,3750,3654,3642,3262,3258,17.8,17.3,18.6,18.5,19,18.9,18.7,16.6,16.7,39.602546,-122.4017
"201","California","06023","Humboldt County",22220,20060,17110,17730,19640,18931,17756,15363,14540,23.1,20.7,17.6,18,20,19.2,17.2,14.8,14.1,40.706673,-123.925818
"202","California","06025","Imperial County",21460,21090,21150,19600,21680,24809,27315,27486,26130,21.2,20.3,19.7,18,19.6,22.6,23.1,23.1,21.7,33.040816,-115.355395
"203","California","06027","Inyo County",2559,2393,2462,2556,2545,2271,2270,2155,2278,18.6,17.5,17.9,19.2,19.5,17.5,15.9,15.2,16.1,36.561977,-117.403927
"204","California","06029","Kern County",108100,112000,118700,131800,125400,124583,123586,124249,125700,22.2,22.1,22.6,24.9,23.3,23.5,22.1,21.9,21.9,35.346629,-118.729506
"205","California","06031","Kings County",18800,19040,19050,20310,20630,22090,20786,19468,19430,19.1,19.1,18.8,19.6,19.8,21.5,19.6,18.5,18.4,36.072478,-119.81553
"206","California","06033","Lake County",9313,9201,9899,9421,8658,8646,9972,10688,10830,19.3,18.7,19.8,19.2,17.5,17.6,20.1,21.6,21.9,39.094802,-122.746757
"207","California","06035","Lassen County",5322,4940,5052,5207,5061,4961,4602,4538,4523,19.8,18.2,18.5,18.6,18.3,18.3,16.6,16.5,16.7,40.721089,-120.629931
"208","California","06037","Los Angeles County",1361000,1290000,1278000,1331000,1373000,1320640,1287470,1229750,1267000,19.7,18.6,18.4,19.1,19.6,18.7,18.1,17,17.3,34.196398,-118.261862
"209","California","06039","Madera County",16480,16170,17730,20600,20560,20444,19255,20435,20490,17.2,16.4,17.4,20.3,20,20.3,18.6,19.6,19.6,37.210039,-119.749852
"210","California","06041","Marin County",25620,26430,28180,29800,27190,24472,21185,21152,21430,13.4,13.7,14.5,15.3,13.9,12.6,10.8,10.7,10.8,38.051817,-122.745974
"211","California","06043","Mariposa County",2718,2503,2665,2708,2941,2937,3011,2620,2438,19.4,17.6,18.3,18.8,20.5,20.9,20.5,17.9,16.9,37.570033,-119.91286
"212","California","06045","Mendocino County",10440,10600,10850,10680,10910,11418,12458,11851,11660,16.1,16.3,16.6,16.5,16.8,17.7,18.8,17.9,17.6,39.432388,-123.442881
"213","California","06047","Merced County",29110,31470,32560,34070,33260,31910,30984,33859,35850,19.2,20.1,20.4,21.3,20.7,20.2,18.7,20,20.8,37.194806,-120.722802
"214","California","06049","Modoc County",1389,1408,1428,1451,1426,1429,1504,1528,1504,19.2,19.3,19.2,20.4,19.9,20.3,20.4,21,21,41.592918,-120.71837
"215","California","06051","Mono County",1599,1545,1627,1659,1556,1411,1371,1477,1600,16.6,16,16.6,16.7,15.7,13.9,12.6,13.4,14.4,37.915836,-118.875167
"216","California","06053","Monterey County",53900,49790,51300,49960,45820,45331,44795,47861,50320,18.9,17.5,18.2,17.7,16.2,15.9,15.4,16.2,16.8,36.240107,-121.315573
"217","California","06055","Napa County",16500,16310,18100,17100,17380,15456,14392,13578,14530,16.8,16.6,18.2,17.3,17.4,15.5,14.2,13.2,14,38.507351,-122.325995
"218","California","06057","Nevada County",11510,11720,13700,13020,11900,10561,10381,11186,11460,15.3,15.3,17.6,16.9,15.4,13.8,13.4,14.3,14.6,39.295191,-120.773446
"219","California","06059","Orange County",332400,329000,349500,356000,353500,357845,349993,352836,348600,15.8,15.5,16.4,16.6,16.4,16.3,16,15.8,15.4,33.675687,-117.777207
"220","California","06061","Placer County",33480,35150,32650,34840,37610,36879,37108,37805,37370,14.7,14.8,13.2,13.8,14.5,14.4,14.5,14.4,14,39.062032,-120.722718
"221","California","06063","Plumas County",3007,2872,2713,2897,2739,3213,2804,2975,2415,18.1,17.1,16.1,17.7,16.9,20,17.7,18.9,15.6,39.99517,-120.829515
"222","California","06065","Riverside County",257700,264800,286800,305600,310200,312376,305594,292674,289900,20.1,19.7,20.3,21.4,21.3,21.6,20.3,19,18.4,33.729828,-116.002239
"223","California","06067","Sacramento County",182900,170600,189000,192400,199000,190560,186935,173046,178000,19.2,17.7,19.4,19.5,20,19,18.4,16.7,16.9,38.450011,-121.340441
"224","California","06069","San Benito County",5989,5819,5971,6205,6114,6009,5697,5652,5651,16,15.5,15.9,16.8,16.4,16,15.1,14.7,14.4,36.610702,-121.085296
"225","California","06071","San Bernardino County",295700,293400,304500,291100,286900,288760,280500,271225,265400,23.3,22.4,22.7,21.7,21.2,21.4,20.4,19.3,18.6,34.85722,-116.181197
"226","California","06073","San Diego County",350900,361800,375500,395400,388900,385299,367419,354696,349500,16.8,17.3,17.9,18.5,18,17.3,16.1,15.3,14.8,33.023604,-116.776117
"227","California","06075","San Francisco County",122900,126100,114700,111800,113500,115800,108329,101730,97060,19.7,20.4,18.5,17.4,16.8,16.9,15.9,14.8,13.8,37.727239,-123.032229
"228","California","06077","San Joaquin County",94960,91850,90840,88710,92140,96643,98917,100074,89390,21.7,20.4,19.8,19.5,20.2,21.4,21.3,21.2,18.6,37.935034,-121.272237
"229","California","06079","San Luis Obispo County",28750,28610,31170,36690,34030,29752,30322,28401,31710,15,14.8,15.9,18.2,16.7,14.6,14.6,13.6,15.1,35.385227,-120.44754
"230","California","06081","San Mateo County",104200,87950,79910,90030,89180,88158,83779,86948,87410,20,16.8,15.2,16.9,16.7,16.2,15.4,15.7,15.6,37.414664,-122.371542
"231","California","06083","Santa Barbara County",50890,51260,49700,52360,48610,46086,45959,42817,46050,17.8,17.9,17.4,18,16.7,16,15,13.9,14.7,34.537378,-120.038485
"232","California","06085","Santa Clara County",211600,192900,189300,209900,217100,214708,211947,206714,207400,17.3,15.6,15.1,16.4,16.8,16.5,16.2,15.5,15.3,37.220777,-121.690622
"233","California","06087","Santa Cruz County",24920,24760,23480,23540,22860,23298,21449,20468,22700,13.6,13.5,12.8,12.6,12.2,12.4,11,10.4,11.4,37.012488,-122.007205
"234","California","06089","Shasta County",19100,21300,22200,25570,26100,26468,26452,25890,27460,14.6,16.1,16.5,19,19.3,19.7,19.9,19.3,20.3,40.760521,-122.04355
"235","California","06091","Sierra County",463.6,442,459.9,472.8,463.9,484,505,436,420,17.2,16.5,16.7,17.8,17.5,19.1,19.3,17.2,16.7,39.576925,-120.521993
"236","California","06093","Siskiyou County",6242,6351,6576,6800,6867,6888,6845,6705,6681,18.4,18.4,18.9,19.8,19.8,20.2,19.8,19.4,19.5,41.587986,-122.533287
"237","California","06095","Solano County",56290,58600,63880,67470,63550,62624,62031,62351,57210,19.5,20.2,21.9,23.1,21.7,21.3,20.6,20.4,18.4,38.267226,-121.939594
"238","California","06097","Sonoma County",50100,48830,51060,54270,56740,51449,49908,45349,49250,14.5,14.2,14.7,15.7,16.2,14.5,13.7,12.3,13.2,38.532574,-122.945194
"239","California","06099","Stanislaus County",78860,68880,76400,83760,84250,82719,71970,70887,65830,23.5,20.1,21.9,24,24.1,24,20.5,19.9,18.3,37.562384,-121.002656
"240","California","06101","Sutter County",13910,14760,14940,14970,14250,14349,13731,14431,14650,22.9,23.5,23,23,21.8,22.3,20.8,21.7,22,39.035257,-121.702758
"241","California","06103","Tehama County",8095,9771,9525,10080,7402,7733,7742,8465,9463,18.7,22.1,21.1,22.5,16.4,17.5,16.9,18.4,20.5,40.126156,-122.232276
"242","California","06105","Trinity County",1862,2206,2335,2573,2663,2604,2303,2059,2203,17.7,20.1,20.4,22.3,22.7,22.9,21,18.7,20.2,40.647724,-123.114404
"243","California","06107","Tulare County",51350,53280,51490,60310,64950,66665,61539,56856,53070,20,20.1,18.9,22.1,23.5,24.3,21.6,19.7,18.2,36.230453,-118.780542
"244","California","06109","Tuolumne County",8348,8569,9039,8635,8210,8564,8546,8621,7056,18.6,19,19.9,19.2,18.3,19.3,19.3,19.5,16.1,38.021451,-119.964708
"245","California","06111","Ventura County",103400,94460,90020,87250,93850,96739,99908,99621,100300,18.6,16.9,16,15.5,16.6,17,17,16.7,16.7,34.358741,-119.133143
"246","California","06113","Yolo County",22280,23610,25670,26300,23710,22729,21660,21054,20940,17.3,18.2,19.4,18.9,16.9,16.2,15,14.4,14.2,38.679268,-121.903178
"247","California","06115","Yuba County",7552,7734,8096,9742,10920,12227,11027,9593,7586,17.5,17.1,16.9,19.8,22,24.6,22.4,19.3,15.1,39.270026,-121.34428
"248","Colorado","08001","Adams County",55680,54120,53740,55740,59500,63548,62483,60982,63810,20.5,19.4,18.7,19.1,20,20.7,20.4,19.5,20,39.874325,-104.331872
"249","Colorado","08003","Alamosa County",1593,1675,1665,1802,1915,2124,2270,2323,2130,15.5,16.2,16.1,17,17.9,20.1,20.7,20.6,18.9,37.568442,-105.788041
"250","Colorado","08005","Arapahoe County",63090,63900,61680,63840,65450,70025,68138,68510,70300,16.8,16.8,15.9,16.2,16.3,17.2,16.5,16.2,16.2,39.644632,-104.331733
"251","Colorado","08007","Archuleta County",1498,1417,1451,1495,1594,1665,1618,1493,1420,17,15.5,15.1,15.3,16.1,17.3,17.1,15.8,14.9,37.202395,-107.050863
"252","Colorado","08009","Baca County",577.9,596.7,608.1,661.3,624.3,696,680,653,620,18.3,19,19.6,21.8,20.7,24.4,23.4,22.5,21.6,37.303144,-102.535457
"253","Colorado","08011","Bent County",837.1,804.1,751,823,861.8,1188,1191,1124,1067,19.7,19,17.7,17.7,18.3,22.3,22.5,21.7,22.8,37.931891,-103.077584
"254","Colorado","08013","Boulder County",19040,19850,18620,21400,22250,24721,23765,21797,21550,9.2,9.6,8.9,9.8,10.1,11,10.8,9.7,9.4,40.094826,-105.398382
"255","Colorado","08014","Broomfield County",4235,4546,4359,5505,5617,6434,6143,5437,5412,14.3,14.9,13.6,14.3,14.3,16.1,15.3,13,12.8,39.953382,-105.052125
"256","Colorado","08015","Chaffee County",2365,2220,2169,2138,2072,2302,2269,2404,2255,17.5,16.4,15.9,15.7,15,16.5,15.6,16.3,15.1,38.738246,-106.316972
"257","Colorado","08017","Cheyenne County",268.6,237.7,228.1,244.2,247.6,266,309,319,346,18.9,17.1,16.8,18.8,19,21,22.9,23.4,25.4,38.835386,-102.604585
"258","Colorado","08019","Clear Creek County",1287,1239,1029,991.2,1057,1189,1241,1155,1178,18.1,17.3,14.5,14.2,15.2,17.5,16.8,15.6,15.8,39.689403,-105.670791
"259","Colorado","08021","Conejos County",1158,1083,1116,1046,1078,1075,1131,1168,1206,20.4,18.7,19.2,18.5,18.9,19.8,19.8,20.3,20.9,37.213406,-106.176447
"260","Colorado","08023","Costilla County",485.3,460.8,439.1,461.5,468.3,500,584,603,714,18.2,17.8,17,18,18.3,20.4,21.5,21.4,25.6,37.277547,-105.42894
"261","Colorado","08025","Crowley County",830,868.8,844.3,1108,1007,1223,1152,1060,973,18.9,20,19.4,19.5,18.7,22.1,23.3,21.5,21.3,38.321956,-103.787562
"262","Colorado","08027","Custer County",515.2,540.1,510.4,569.2,559.6,726,742,704,654,17.1,17.5,16.1,17.6,17.2,22.4,21.2,20.2,18.6,38.101994,-105.373515
"263","Colorado","08029","Delta County",4407,4267,4382,4673,4956,5736,4870,4516,4071,19.6,18.7,18.9,20.1,20.9,24.4,20.8,19.6,17.5,38.861756,-107.864757
"264","Colorado","08031","Denver County",64020,61440,61860,68180,69160,72021,65704,64860,61340,15.5,14.9,14.8,15.8,15.8,15.7,14.3,13.8,12.6,39.761849,-104.880625
"265","Colorado","08033","Dolores County",227.1,216.9,218.3,239.4,266.8,324,329,274,243,16.3,15.5,14.8,16.2,17.4,21.9,20.9,17.7,16,37.747602,-108.530383
"266","Colorado","08035","Douglas County",17180,19330,19380,19650,20360,21030,21381,21725,22660,10.5,11.1,10.5,10.4,10.4,10.7,11,10.9,11.1,39.326435,-104.926199
"267","Colorado","08037","Eagle County",3887,4390,4342,4352,4162,4370,3981,3578,4001,11.2,12.3,11.8,11.4,10.7,11,10.4,9.4,10.4,39.630638,-106.692944
"268","Colorado","08039","Elbert County",2749,2759,2797,2843,3053,3251,3280,3058,3079,17.2,16.8,16.4,16.9,17.7,19.1,19.6,18,17.8,39.310817,-104.117928
"269","Colorado","08041","El Paso County",65030,64530,67240,73270,75920,76975,76319,75732,74470,16.6,16.1,16.4,17.5,17.8,18,17.2,16.7,16.2,38.827383,-104.527472
"270","Colorado","08043","Fremont County",7760,7589,7404,7594,7519,7749,7210,7221,7470,20.8,20.1,19.3,20,19.8,20.1,19.1,18.8,19.7,38.455658,-105.421438
"271","Colorado","08045","Garfield County",5018,4762,4886,5231,6182,5929,5465,4455,4755,14.6,13.5,13.2,13.7,15.8,15.2,13.8,11.2,11.8,39.599352,-107.90978
"272","Colorado","08047","Gilpin County",607.1,651.9,640.7,655.6,640.1,854,827,829,757,15.9,16.8,16.2,16.3,15.7,19.2,18.6,18.7,17,39.861082,-105.528947
"273","Colorado","08049","Grand County",1510,1582,1502,1577,1522,1813,1787,1653,1378,14.7,15.4,14.3,14.8,14.1,16.8,15.5,14.5,12.3,40.123289,-106.095876
"274","Colorado","08051","Gunnison County",1719,1623,1516,1536,1616,1742,1619,1432,1383,15.8,14.8,13.7,13.2,13.8,14.6,13.6,12,11.7,38.669679,-107.078108
"275","Colorado","08053","Hinsdale County",110,104.1,102.6,117.4,119.1,126,124,111,102,17.2,16.6,15.6,17,17.4,19.5,18.5,16.7,16,37.811625,-107.383405
"276","Colorado","08055","Huerfano County",1126,1058,1131,1189,1236,1496,1377,1152,1187,18.5,17.3,18.2,18.6,19,24.4,25.8,21.9,22.1,37.687815,-104.959928
"277","Colorado","08057","Jackson County",163.7,164.8,162.2,146.3,145.8,200,212,196,202,15,15.3,15.1,13.6,13.9,18.9,19.2,17.8,18.5,40.663432,-106.329248
"278","Colorado","08059","Jefferson County",50730,53630,52750,58330,60420,64497,57843,53867,50100,13.2,13.8,13.5,14.7,15.1,16,14.3,13.2,12.1,39.58646,-105.245601
"279","Colorado","08061","Kiowa County",196.7,200.2,206.6,213.9,210.2,198,213,225,232,18.9,19.1,19.7,20.7,20.4,21.5,20,20.6,21.3,38.388466,-102.75621
"280","Colorado","08063","Kit Carson County",1127,1023,1089,1412,1408,1719,1691,1435,1617,20,18.2,19.5,23.6,23.7,26.9,27.1,23.5,26.5,39.30534,-102.603023
"281","Colorado","08065","Lake County",775.6,759,759,860.1,903,1041,931,890,840,14.2,13.9,13.7,15.2,15.7,18.2,17.6,16.7,15.7,39.204316,-106.349696
"282","Colorado","08067","La Plata County",4528,4486,4649,4938,5472,6025,6010,5261,5055,12.9,12.5,12.7,13,14.2,15.4,15.4,13.3,12.6,37.287367,-107.839718
"283","Colorado","08069","Larimer County",26110,27720,26980,29500,29710,31662,28501,27923,28390,13.2,13.8,13.1,13.7,13.5,14.2,12.7,12.2,12.1,40.663091,-105.482131
"284","Colorado","08071","Las Animas County",2326,2235,2165,2503,2862,3005,2541,2315,2540,20.3,19.4,18.5,20.5,23.4,24.6,21.6,20,22.1,37.318831,-104.04411
"285","Colorado","08073","Lincoln County",832,794.6,711,808.5,790.7,961,980,930,911,19.2,18.4,16.8,19.5,19,23.8,23,22.1,21.5,38.99374,-103.507555
"286","Colorado","08075","Logan County",3081,2803,2766,3273,3361,3497,3774,3529,3629,20.3,18.6,18.2,20.9,21.6,22.5,21.8,20.3,21,40.728091,-103.090464
"287","Colorado","08077","Mesa County",17910,18410,19390,19760,19100,19633,18549,19270,19400,19,19,19.3,19,17.9,18.3,17.2,17.8,17.8,39.019492,-108.461837
"288","Colorado","08079","Mineral County",132.7,126,126,138.5,141.5,142,108,109,116,17.5,16.6,16.3,17,17.3,18.9,18.2,18.2,19.2,37.651478,-106.9323
"289","Colorado","08081","Moffat County",1655,1598,1579,1688,2031,2584,2520,2349,2112,17.3,16.8,16.1,17.2,20.3,26.1,25.8,24.6,22.3,40.573984,-108.204521
"290","Colorado","08083","Montezuma County",3195,3384,3585,3583,3807,3825,4336,3878,3727,17.9,18.7,19.4,19.2,20.3,20.5,22.8,20.4,19.6,37.338025,-108.595786
"291","Colorado","08085","Montrose County",5163,4734,5138,6131,6193,5988,5041,4991,5170,19.2,17.1,17.9,20.9,20.5,20,16.7,16.6,17.1,38.413427,-108.263042
"292","Colorado","08087","Morgan County",4076,4163,3896,3951,3970,4511,4200,4061,4048,21.2,21.7,20.1,20.3,20.4,23.6,21.6,20.4,20.3,40.262353,-103.807092
"293","Colorado","08089","Otero County",2562,2916,3234,3547,3313,3119,2876,2822,2879,18.5,21.1,23.5,26.2,24.5,23.5,21.1,20.7,21.2,37.88417,-103.72126
"294","Colorado","08091","Ouray County",511.7,500.8,531.7,547.7,578.1,581,529,534,497,15.8,15,15.6,15.8,16.1,15.8,14.8,14.9,13.5,38.1506,-107.767133
"295","Colorado","08093","Park County",1918,1718,1817,1905,2010,2577,2415,2321,2012,15,13.2,13.7,14.4,15.2,19.7,18.8,18.1,15.5,39.118914,-105.717648
"296","Colorado","08095","Phillips County",565.9,551.7,628,628.6,633.5,621,686,653,671,17.3,16.8,19,19.3,19.4,19.7,21.1,20.5,21,40.594712,-102.345105
"297","Colorado","08097","Pitkin County",1582,1687,1704,1698,1664,1643,1631,1411,1328,13,13.8,13.9,13.5,13,12.5,11.7,10.2,9.5,39.217533,-106.915943
"298","Colorado","08099","Prowers County",1862,1820,2060,2254,2283,2474,2183,2021,1923,19.7,19.2,21.9,24.6,24.9,27.6,25,23.3,22.3,37.958181,-102.392161
"299","Colorado","08101","Pueblo County",17720,19400,20220,23520,22780,22814,21185,22035,23360,16.3,17.6,18.1,20.8,19.8,20,18.3,18.8,19.8,38.170658,-104.489892
"300","Colorado","08103","Rio Blanco County",726.4,743.1,667.1,769.7,805.6,883,846,825,859,16.5,17,14.7,16.7,17.1,19.1,17.6,16.8,17.6,39.972606,-108.200685
"301","Colorado","08105","Rio Grande County",1819,1636,1511,1782,1856,2019,1934,1755,1709,20.6,18.6,17.5,20.9,21.6,23.9,22.2,20.2,19.6,37.485763,-106.453214
"302","Colorado","08107","Routt County",2368,2047,1929,1814,2014,1939,1886,1859,2086,14.5,12.4,11.4,10.3,11.2,10.6,10.4,10.3,11.6,40.48316,-106.985288
"303","Colorado","08109","Saguache County",830.2,846.7,853.5,860,874,966,900,868,889,16.7,16.8,16.9,17.1,16.9,18.5,19.8,18.6,19,38.033952,-106.246675
"304","Colorado","08111","San Juan County",75.91,72.44,70.63,69.91,68.4,83,107,95,99,16.3,15.8,15.1,15.4,15.4,18.7,18.5,16.5,17.3,37.781074,-107.670257
"305","Colorado","08113","San Miguel County",855.2,832.7,765.5,758.2,772.8,787,818,761,799,14.8,14.2,13.1,12.3,12.6,12.9,14,12.8,13.3,38.009374,-108.427326
"306","Colorado","08115","Sedgwick County",401.8,400,387.2,383.7,360.5,381,421,401,409,20.6,20.8,20.6,21,19.6,21.4,22.6,21.4,21.9,40.871568,-102.355358
"307","Colorado","08117","Summit County",2319,2233,2342,2452,2366,2489,2642,2092,2085,11.6,11.1,11.5,11.5,11,11.5,11.6,9.2,9.1,39.621023,-106.137555
"308","Colorado","08119","Teller County",2480,2629,3082,3475,3398,3208,3375,3085,3115,15.3,15.9,18.1,20.7,20.2,19.4,18.6,17,17.1,38.871994,-105.182552
"309","Colorado","08121","Washington County",675.6,673.7,674.5,714.1,689,896,872,719,655,19.6,19.5,19.3,20,19.6,26.5,24.2,19.8,18.3,39.965413,-103.209605
"310","Colorado","08123","Weld County",25980,24790,25100,28020,31180,31917,30098,31654,32240,17.1,15.6,15.1,16.5,17.9,18.1,17.2,17.7,17.6,40.555794,-104.383649
"311","Colorado","08125","Yuma County",1540,1495,1228,1326,1349,1524,1587,1506,1816,22.3,21.5,17.5,19.1,19.4,22.3,22.2,20.9,25.2,40.000631,-102.422649
"312","Connecticut","09001","Fairfield County",118100,122600,127700,125200,123900,127577,134390,134214,138400,18.2,18.9,19.6,19.3,19.1,19.6,20.1,19.8,20.3,41.228103,-73.366757
"313","Connecticut","09003","Hartford County",131200,132200,137400,139300,143000,150687,155330,152337,155400,20.5,20.5,21.1,21.5,22,23.1,23.3,22.7,23.1,41.806053,-72.732916
"314","Connecticut","09005","Litchfield County",26610,25520,25430,25650,26340,27762,29049,28626,29650,18.8,17.9,17.6,18,18.4,19.4,20,19.7,20.5,41.791897,-73.235428
"315","Connecticut","09007","Middlesex County",21980,21650,23810,25230,27500,26398,27092,25823,27200,18.1,17.7,19.2,20.4,22.1,20.9,21.4,20.2,21.3,41.434525,-72.524227
"316","Connecticut","09009","New Haven County",143400,152100,156700,156800,161100,166720,163822,155987,149900,23.2,24.5,25.1,25.1,25.8,26.5,25.4,24.1,23.1,41.349717,-72.900204
"317","Connecticut","09011","New London County",38660,38270,38180,38960,42590,45174,48483,44585,45240,19.7,19.6,19.5,19.6,21.6,22.5,23.4,21.4,21.6,41.47863,-72.103452
"318","Connecticut","09013","Tolland County",19210,18450,20830,20480,22310,21410,21904,19542,20070,17.9,17,18.9,18.6,20.2,19.3,19.2,17.2,17.7,41.858076,-72.340977
"319","Connecticut","09015","Windham County",17110,18860,18560,19010,19390,22467,21850,20793,21290,20.3,22,21.2,21.8,22.1,25.7,24.9,23.5,24,41.824999,-71.990702
"320","Delaware","10001","Kent County",25700,26330,27560,29470,30190,31920,32285,32719,34270,26.1,25.8,26,27.1,27.1,28.2,27.6,27.4,28.1,39.097088,-75.502982
"321","Delaware","10003","New Castle County",86620,83250,84850,83220,84700,85604,90038,86600,92960,23.1,22,22.3,21.7,22,21.9,22.7,21.6,23,39.575915,-75.644132
"322","Delaware","10005","Sussex County",33850,33080,33810,35370,36520,38893,40152,40717,42320,25.8,24.5,24.4,25.2,25.4,26.2,26.2,26.1,26.7,38.677511,-75.335495
"323","District of Columbia","11001","District of Columbia",92100,93380,91210,91620,91020,91083,90035,85807,85550,20.8,20.9,20.4,20.2,19.9,19.7,18.7,17.5,17,38.904149,-77.017094
"324","Florida","12001","Alachua County",33400,33200,33060,34300,36100,40398,40176,39524,37120,20.3,20,19.6,19.1,20,22.2,21.4,20.7,19.2,29.67574,-82.357221
"325","Florida","12003","Baker County",5152,5176,5567,5890,5924,6192,6216,6347,7016,30,29.3,30.5,31.4,31,32.8,32.1,32.7,35.8,30.324442,-82.302284
"326","Florida","12005","Bay County",32260,30960,32580,32480,32470,29728,31438,32644,35980,27.4,25.7,26.7,26.5,26.5,24,24.6,25.3,27.4,30.237563,-85.631348
"327","Florida","12007","Bradford County",6837,6968,7515,7412,7241,6820,6896,6964,7033,32,32,34.1,33.2,32.1,29.9,31.1,31.1,33.4,29.946934,-82.166796
"328","Florida","12009","Brevard County",91160,97520,101500,101800,96960,103339,106251,106499,105800,22.8,23.9,24.5,24.5,23.2,24.8,25.1,25,24.6,28.298275,-80.700384
"329","Florida","12011","Broward County",327300,299100,307400,285600,304100,301900,311884,306226,329000,25.2,22.7,23.3,21.9,23.3,22.9,23.6,22.7,23.9,26.19352,-80.476658
"330","Florida","12013","Calhoun County",2880,3001,3504,3445,3423,3185,3574,3688,3845,29,29.4,34,32.9,32.5,29.9,32,32.5,33.9,30.388801,-85.197915
"331","Florida","12015","Charlotte County",33560,30250,29550,27740,27050,28285,30717,31110,33020,25.7,23.6,23.1,22.1,21.9,21.6,22.8,23.1,24,26.868826,-81.940858
"332","Florida","12017","Citrus County",28840,28070,31200,31690,32140,31372,30601,30040,32490,27.1,25.5,27.4,27.6,27.7,27.3,26.3,26,28.1,28.843628,-82.524796
"333","Florida","12019","Clay County",27930,27440,31800,34140,34630,32235,33673,34020,35180,23.6,22.1,24.2,25.7,25.5,24.4,24.8,24.7,25.1,29.987115,-81.858147
"334","Florida","12021","Collier County",42830,40820,45660,46140,49290,43203,44268,43505,46950,18.5,17,18.6,18.8,20.1,17.4,17.5,16.9,17.8,26.118713,-81.400884
"335","Florida","12023","Columbia County",11910,12100,14280,14320,14970,15103,15364,15376,16620,26.3,25.5,28.5,28.2,28.9,29.1,30.4,30.3,32.3,30.221305,-82.623127
"336","Florida","12027","DeSoto County",8099,7577,7721,7812,7704,8286,8103,8187,8136,30.9,28.7,29.1,30.1,30.3,31.1,31.1,31.6,31,27.190581,-81.806253
"337","Florida","12029","Dixie County",3579,3289,3697,3664,3722,3966,4320,4419,4004,32.4,28.8,31.6,31.4,31.7,34.3,33.4,34.3,31.6,29.580899,-83.195666
"338","Florida","12031","Duval County",138800,146000,146600,149100,149600,163632,163238,163975,155500,23.8,24.7,24.5,24.6,24.5,26.2,25.6,25.4,23.7,30.335245,-81.648113
"339","Florida","12033","Escambia County",59280,56140,58000,59100,59660,58150,57072,54582,58940,27.5,26.1,26.9,26.3,26.8,25.9,25.7,24.4,25.9,30.611664,-87.33904
"340","Florida","12035","Flagler County",12700,13200,15420,16220,18280,17025,18642,17363,17900,22.8,21.4,22.8,23,25.1,23.7,24.9,22.7,23,29.474894,-81.286362
"341","Florida","12037","Franklin County",2161,2111,2397,2340,2708,2718,2709,2726,2579,27.6,26.7,30,29.9,30,29.5,28.8,29,27.1,29.810176,-84.799173
"342","Florida","12039","Gadsden County",9861,9569,10020,10340,10770,11050,11039,10853,11290,29.7,28.5,29.5,29.9,30.8,31.5,32.5,30.9,32.3,30.579169,-84.612783
"343","Florida","12041","Gilchrist County",3254,2971,3309,3575,3805,3648,3620,3484,3946,27.6,24.2,26.2,27.9,29.3,28.7,28.6,27.4,31,29.723456,-82.795801
"344","Florida","12043","Glades County",2593,2461,2757,2797,2861,2984,3424,3554,3597,29.6,27.7,31,31.5,31.6,34,33.8,33.9,33.9,26.95481,-81.19082
"345","Florida","12045","Gulf County",2887,2813,2991,2946,3477,3565,3590,3409,3691,26.9,25.5,27,26.4,27.1,27.5,27.6,26.5,28.4,29.907257,-85.256537
"346","Florida","12047","Hamilton County",3575,3193,3374,3523,3631,3736,3781,3608,3808,33.5,30.2,31.3,32.3,33.1,33.5,33.1,31.9,32.9,30.491102,-82.951049
"347","Florida","12049","Hardee County",5122,5574,6923,7096,7018,6384,5932,5583,6534,26,28,34.5,34.9,34.5,31.1,30.9,30.5,33.9,27.492846,-81.82158
"348","Florida","12051","Hendry County",6229,6483,7744,7955,8182,8347,8494,8305,8130,24.4,24.3,28.2,29.6,30.4,31,31.4,30.9,31.3,26.53934,-81.151584
"349","Florida","12053","Hernando County",32560,31240,33040,34710,36590,35902,35517,35076,35790,27.2,24.8,25.1,26,26.9,26.8,26.2,25.8,26.2,28.567911,-82.464835
"350","Florida","12055","Highlands County",18820,18570,21890,22360,23190,22024,22065,21400,22420,25.5,24.4,28,28.3,29.1,28.1,28,27.3,28.6,27.342627,-81.340921
"351","Florida","12057","Hillsborough County",201300,206800,204500,209700,209200,210602,209386,207377,228800,25.3,25.2,24.3,24.6,24.4,24.2,23.2,22.1,24.2,27.90659,-82.349568
"352","Florida","12059","Holmes County",4056,3751,4551,4843,5099,4840,4975,4849,5434,28.1,25.7,30.8,32.8,34.3,33.3,32.9,31.9,35.6,30.866222,-85.812959
"353","Florida","12061","Indian River County",21520,22100,23030,23790,23410,25296,26057,26337,28240,21.8,21.9,22.3,22.9,22.4,23.8,23.8,23.9,25.2,27.700638,-80.574803
"354","Florida","12063","Jackson County",9656,9564,11430,11400,11450,12456,12268,12302,12530,26.6,25.5,30.2,30,29.9,31.6,31.9,32.2,32.5,30.787812,-85.210374
"355","Florida","12065","Jefferson County",2997,2946,3182,3313,3372,3182,3337,3196,3076,26.8,26,27.7,29,29.3,28.8,28.5,27.7,27,30.424558,-83.890859
"356","Florida","12067","Lafayette County",1549,1694,1962,2022,1995,1828,2002,2013,2254,26.7,27.3,31.1,32.3,31.8,29.4,29.2,29.5,33.1,29.990066,-83.17851
"357","Florida","12069","Lake County",52860,51650,54610,55300,57720,58750,53844,54568,60820,25.7,23.7,23.8,23.4,23.8,23.8,23.4,23.5,25.8,28.764113,-81.712282
"358","Florida","12071","Lee County",113800,108700,112400,103700,104700,106488,118365,119890,120900,28.3,25.5,25.1,22.7,22.8,23.4,24.4,24.2,23.8,26.552134,-81.89225
"359","Florida","12073","Leon County",40630,40220,35680,38390,38540,40861,41581,41647,39630,22.9,22.4,19.8,19.9,19.8,20.9,20.4,20.1,18.6,30.45931,-84.2778
"360","Florida","12075","Levy County",8670,8689,8744,8989,9158,9743,10421,10219,9749,30.8,30.1,29.3,30.2,30.4,32.7,33.4,32.8,31.4,29.284409,-82.783482
"361","Florida","12077","Liberty County",1546,1519,1830,1870,1876,1891,2104,2052,1966,27,25.3,30.3,30.9,30.5,31.2,32.9,32.7,30.6,30.259849,-84.86858
"362","Florida","12079","Madison County",3994,3854,4114,4223,4255,4514,4379,4284,4374,28.5,27.5,28.8,29.8,30,31.8,30.2,29.5,29.8,30.447228,-83.470437
"363","Florida","12081","Manatee County",55700,54870,53940,55050,56490,61943,61780,61126,57160,24.4,23.2,22.3,22.8,23.2,25.2,24.7,24,21.9,27.481386,-82.365783
"364","Florida","12083","Marion County",63080,65220,67530,67860,70570,71570,71202,73495,73790,27.9,27.6,27.3,26.9,27.4,28,27.4,28,27.8,29.202805,-82.0431
"365","Florida","12085","Martin County",25380,25180,23530,23500,23160,22673,24020,24000,25690,23.1,22.6,21.1,21.2,20.9,20.4,20.4,20.2,21.4,27.079954,-80.398211
"366","Florida","12086","Miami-Dade County",411600,398200,403000,410700,471100,444900,447830,410530,441100,24,22.9,22.9,23.2,26.3,23.9,23.7,21.1,22.3,25.610494,-80.499045
"367","Florida","12087","Monroe County",13950,14790,14120,13860,13360,11319,11111,10813,12920,21.9,23.7,23.1,23,22.4,18.8,18.2,17.5,20.7,25.601043,-81.206777
"368","Florida","12089","Nassau County",12240,12120,14060,14190,14440,12915,13270,13231,13640,26,24.9,27.8,27.4,27.2,24.3,23.8,23.3,23.7,30.605926,-81.764929
"369","Florida","12091","Okaloosa County",29900,32070,31210,31270,30950,29949,31735,31440,35450,22.5,24.1,23.6,23.4,23.3,22.6,23.4,22.8,24.7,30.665858,-86.594194
"370","Florida","12093","Okeechobee County",9091,8618,9195,9265,9049,9177,9043,9228,8650,31.9,29.7,31.1,31.5,30.7,31.6,30.8,31.9,29.6,27.385592,-80.887388
"371","Florida","12095","Orange County",161100,153100,160600,169000,174200,187477,197598,201377,203700,22.7,20.8,21.4,22.1,22.6,23.8,23.6,23.4,23,28.514435,-81.323295
"372","Florida","12097","Osceola County",40110,42370,47450,48510,51160,49599,51347,52337,55370,25.3,25.4,26.9,26.5,27,26.2,26.9,26.5,26.8,28.059027,-81.139312
"373","Florida","12099","Palm Beach County",212700,197900,200600,204000,217100,220894,230749,230247,245100,22.3,20.4,20.5,21,22.3,22.5,22.6,22.2,23.3,26.645763,-80.448673
"374","Florida","12101","Pasco County",74040,75360,83890,85520,92950,103674,104888,100002,91620,23.4,22.6,24,24,25.6,28.6,29.4,27.8,25.2,28.302024,-82.455707
"375","Florida","12103","Pinellas County",164300,181800,185300,186000,167000,148191,146238,149523,176100,22.5,24.9,25.4,25.7,23.2,20.5,19.9,20.3,23.7,27.903122,-82.739518
"376","Florida","12105","Polk County",113200,112400,110600,109300,108800,111350,114272,115439,127900,29.3,28.1,26.7,25.9,25.5,26,25.7,25.5,27.9,27.953115,-81.692783
"377","Florida","12107","Putnam County",13620,13520,16420,16500,16840,17421,18754,18475,17520,25.6,25,30,30.2,30.9,32.1,33.7,33.3,31.6,29.606006,-81.740894
"378","Florida","12109","St. Johns County",23890,24250,22960,22800,24700,25836,25602,25112,27650,20.5,19.6,17.5,16.9,17.7,18.3,18,17.1,18.2,29.890593,-81.383914
"379","Florida","12111","St. Lucie County",44170,44630,46310,44320,46220,50667,54696,52768,55660,25.5,24.4,24,22.6,23.1,25.3,26.1,24.7,25.7,27.380775,-80.443364
"380","Florida","12113","Santa Rosa County",23730,24340,23570,25540,26360,28098,27655,28106,29300,23.4,23.1,21.9,23.3,23.5,25,24.7,24.3,24.7,30.703633,-87.014255
"381","Florida","12115","Sarasota County",60950,60950,65490,67670,65540,59811,60275,62176,66770,20.9,20.3,21.5,22.2,21.4,19.7,19.2,19.7,20.9,27.184386,-82.365835
"382","Florida","12117","Seminole County",57690,60390,64610,63980,63750,62125,65548,66376,67690,20.1,20.4,21.4,21,20.7,20.2,20.8,20.7,20.8,28.690079,-81.13198
"383","Florida","12119","Sumter County",12930,12520,12920,12800,13330,13149,18298,17861,19900,25.9,23.7,22.7,21.6,21.8,20,21.6,20.1,21.5,28.714294,-82.074715
"384","Florida","12121","Suwannee County",8061,7520,8266,8433,9119,9115,9330,9495,9726,28.5,25.8,27.7,28.2,30.2,30.3,30,28.8,29.2,30.189244,-82.992754
"385","Florida","12123","Taylor County",4457,4383,4843,4837,5371,5132,5548,5703,6386,31,29.7,32.4,32.2,32,31.2,31.4,32,35.5,30.016943,-83.616417
"386","Florida","12125","Union County",3272,3098,3720,3821,3871,3542,3791,3627,3734,28.4,26.2,31.5,31.9,31.9,31.1,31.1,30.3,31.2,30.05428,-82.366918
"387","Florida","12127","Volusia County",96480,91960,93300,98260,94310,98964,99646,104791,100700,26,24.2,24.1,25.3,24.3,25.6,25.7,26.9,25.6,29.057617,-81.161813
"388","Florida","12129","Wakulla County",4749,4755,5694,5792,6262,6915,6452,6465,6215,23.4,22.3,25.2,25.5,26.2,27.6,27.7,27.5,26.4,30.140378,-84.375136
"389","Florida","12131","Walton County",9781,9756,10590,10630,11130,11329,11453,11400,10920,26.2,25,26.1,26,26.8,26.5,26.8,26.2,24.4,30.631211,-86.176614
"390","Florida","12133","Washington County",5035,4877,5220,5122,5589,5489,6026,5662,6617,30.2,28.8,30.1,29.1,30.2,30.1,31.7,30.1,34.5,30.602217,-85.662797
"391","Georgia","13001","Appling County",3827,3701,3619,3602,3922,4110,4268,3902,3948,29.9,28.8,28.2,28,30.3,32.3,32.4,29.3,29.6,31.739712,-82.290103
"392","Georgia","13003","Atkinson County",1459,1572,1562,1574,1429,1593,1710,1797,1798,27.4,29.3,28.9,28.7,26.2,29.5,30.1,31.7,31.5,31.300562,-82.883614
"393","Georgia","13005","Bacon County",2343,2236,2300,2071,2126,2631,2673,2590,2245,31.7,29.7,30.4,27.2,28,34.4,33.4,32.1,28,31.563327,-82.387859
"394","Georgia","13007","Baker County",977.1,939.5,895.6,779.5,789.5,736,737,725,722,32.3,31.4,30.1,27.8,27.9,27.6,29.4,29.2,28.6,31.319622,-84.454857
"395","Georgia","13009","Baldwin County",8895,9057,8953,8787,8815,9545,9662,9632,8505,26.7,27,26.7,25.6,25.4,27.9,29.2,29.2,24.7,33.059532,-83.255362
"396","Georgia","13011","Banks County",3203,3405,3428,3311,3020,3015,3586,3945,3820,28.1,29,28.6,27.5,24.7,24.7,27.1,29.5,28.3,34.351922,-83.498441
"397","Georgia","13013","Barrow County",9948,10750,12390,12350,13090,13822,14828,15003,15120,25,25.5,27.5,26.8,27.2,27.6,30.7,30.8,30.8,33.992009,-83.712303
"398","Georgia","13015","Bartow County",14700,15900,16210,15770,16230,16657,19016,18629,19130,24.1,25.3,25.2,24.4,24.5,24.8,26.9,26.1,26.6,34.240917,-84.838188
"399","Georgia","13017","Ben Hill County",3735,3891,3776,3643,3565,3714,4082,4046,3764,31,32.1,30.7,29.7,29,30.7,32.6,32.2,29.9,31.740775,-83.14719
"400","Georgia","13019","Berrien County",3501,3214,3347,3406,3491,3633,4284,4821,4858,29.7,26.9,28,28.6,28.8,29.9,30.9,34.4,34.5,31.274308,-83.231906
"401","Georgia","13021","Bibb County",31450,32740,31840,31730,30530,31428,29780,30689,30330,29.1,30.3,29.4,29.3,28.1,28.7,26.9,27.6,27.1,32.808844,-83.694193
"402","Georgia","13023","Bleckley County",2270,2339,2369,2421,2330,2442,2617,2519,2689,27.2,27.6,27.5,28.6,27.1,27.9,28.7,27.4,29.1,32.435403,-83.331717
"403","Georgia","13025","Brantley County",3382,3974,4060,3593,3508,3251,3461,3341,3607,30.4,35.4,35.2,31.7,30.5,28.6,26.5,25.1,27,31.197334,-81.982978
"404","Georgia","13027","Brooks County",3746,3770,3885,3676,3759,3828,3737,3574,3430,32,32.1,32.6,30.8,31.2,31.4,31.3,30.2,29.1,30.833696,-83.588971
"405","Georgia","13029","Bryan County",5124,5555,5586,5268,5382,5361,4786,5118,5641,27.1,28,26.9,25.4,25,24.3,23.1,24,25.6,32.017969,-81.438543
"406","Georgia","13031","Bulloch County",10890,11150,10970,11540,11880,12242,12115,12688,13230,26.1,26,25,25.1,25.2,25.3,24.2,24.4,25.4,32.393408,-81.74381
"407","Georgia","13033","Burke County",4905,4877,4580,4403,4567,4849,5064,4696,4525,31.7,31.3,29.5,28.8,29.6,31.4,31.4,28.6,27.8,33.063736,-82.00389
"408","Georgia","13035","Butts County",4707,4829,4910,4585,4675,4677,4773,5163,5343,28.2,28.3,27.7,26,25.8,25.8,26.9,29.1,30.1,33.290355,-83.958221
"409","Georgia","13037","Calhoun County",1365,1457,1404,1361,1343,1333,1535,1446,1452,29.8,32.3,30.7,29.1,27.7,27.3,29.4,28.2,28.4,31.521279,-84.62629
"410","Georgia","13039","Camden County",6937,7231,6931,7797,7788,8016,8348,8415,9082,23.7,24.1,23.4,24.1,24.6,23.8,23.6,23.6,24.8,30.916358,-81.636516
"411","Georgia","13043","Candler County",2236,2234,2372,2281,2243,2142,2198,2400,2423,31.1,30.5,31.4,30.8,29.9,28.3,27.8,29.7,30.6,32.403986,-82.071446
"412","Georgia","13045","Carroll County",19800,20770,22470,21190,20590,19907,21690,21232,23020,27.5,27.9,29.3,27,25.8,24.6,27.8,27,29,33.582237,-85.080527
"413","Georgia","13047","Catoosa County",12440,12170,11110,10580,11410,13833,15226,14348,14370,28.7,27.5,24.5,23.5,25,29.6,32.8,30.2,30.1,34.899393,-85.137353
"414","Georgia","13049","Charlton County",2187,2405,2495,2238,2209,2383,2974,2947,3044,28.5,31,31.2,28.8,27.5,29.9,30.2,28.1,29.2,30.779904,-82.139644
"415","Georgia","13051","Chatham County",43440,44200,45690,45280,43960,44182,47331,47835,49650,25.5,26,26.6,25.6,24.7,23.5,24.1,23.7,24.1,31.974755,-81.091768
"416","Georgia","13053","Chattahoochee County",1939,1814,2164,1359,2165,2335,1914,2126,2442,24.7,24.7,24.3,24.9,23.6,23.6,25.9,26.9,27.5,32.347445,-84.788021
"417","Georgia","13055","Chattooga County",5894,5879,5904,5824,5685,5653,5496,5335,5312,29.7,29.5,29.6,28.9,28.1,28.3,28.1,27.5,27.5,34.474178,-85.345289
"418","Georgia","13057","Cherokee County",25390,26560,25700,28740,29050,32548,34342,34572,33860,20.7,20.5,18.6,20.4,20,21.8,22.7,22.5,21.6,34.244317,-84.475057
"419","Georgia","13059","Clarke County",16870,16660,17000,16400,16450,16271,20498,21850,22000,21.9,21.1,21.3,19.7,19.7,19,23.5,24.7,24.6,33.952234,-83.36713
"420","Georgia","13061","Clay County",777.1,781.2,782.7,755.6,742.2,680,741,739,728,32.5,33.3,33.9,32.4,31.8,30.2,31.2,31.1,30.7,31.619831,-84.992583
"421","Georgia","13063","Clayton County",47800,53480,54280,55090,54530,54259,49061,46193,47420,26.9,29.8,29.7,30.1,29.4,29.3,27.7,25.8,26,33.552242,-84.412977
"422","Georgia","13065","Clinch County",1432,1430,1383,1372,1389,1485,1491,1419,1442,29.9,29.5,29,28.1,28.1,30.7,31.1,29.6,29.8,30.917653,-82.702614
"423","Georgia","13067","Cobb County",95390,93810,92140,92120,98470,106586,99494,97398,93640,20.5,19.9,19.1,18.7,19.8,21,20.1,19.4,18.3,33.93994,-84.574166
"424","Georgia","13069","Coffee County",9119,8735,8839,8554,8351,9215,9270,10291,10520,33.6,31.8,31.6,30.6,29.6,32.3,30.7,33.4,34,31.549245,-82.844938
"425","Georgia","13071","Colquitt County",8908,9196,9432,9730,9389,9069,9230,9705,10960,29.1,29.9,30,31,29.6,28.7,29.2,30.4,33.8,31.189758,-83.769741
"426","Georgia","13073","Columbia County",15980,17830,18000,16460,16910,17484,20370,21204,21420,22.8,24.5,23.7,21.6,21.8,22.3,23.3,23.4,23,33.550556,-82.251342
"427","Georgia","13075","Cook County",3639,3870,3779,3492,3397,3349,3611,3384,3311,32.1,33.8,32.8,30.1,28.8,28.6,29.8,28.1,27.4,31.152935,-83.429551
"428","Georgia","13077","Coweta County",21130,21480,19050,18050,19070,21148,23314,23712,23400,28.6,27.7,23.3,21.8,22.2,23.6,25.9,25.9,25.1,33.352897,-84.762138
"429","Georgia","13079","Crawford County",2646,2800,2958,2731,2634,2576,2694,2793,3112,28.8,30.2,31.8,29.8,28.5,28.3,28.6,29.5,32.6,32.709446,-83.979182
"430","Georgia","13081","Crisp County",4755,4641,4601,4351,4564,4984,6035,5552,5320,31.2,30.5,29.9,28.2,29.4,32.2,36.2,32.6,31.2,31.914753,-83.753338
"431","Georgia","13083","Dade County",3320,3359,3411,3021,2829,2843,3332,3449,3338,28.3,28.3,28.4,25.5,23.7,24.1,27.1,27.9,26.9,34.852424,-85.506201
"432","Georgia","13085","Dawson County",3705,3731,3624,3656,3616,3918,3909,4025,3922,26.4,25.5,23.7,23.5,22.7,23.5,23.2,23.9,23.1,34.442842,-84.173284
"433","Georgia","13087","Decatur County",5823,5941,6068,6098,6631,6636,6033,5794,5559,29.4,29.9,30.1,30.2,32.4,32.5,30.3,29.1,28,30.877961,-84.577744
"434","Georgia","13089","DeKalb County",114000,114500,111700,112000,116200,114189,106986,100750,109900,22.4,22.2,21.4,20.8,21.4,20.8,21,19.6,21.1,33.770661,-84.226343
"435","Georgia","13091","Dodge County",4508,4160,4132,4182,4383,4388,5051,4869,4954,31.9,29.3,28.8,28.6,29.7,30.7,31.6,30.8,30.9,32.160656,-83.156818
"436","Georgia","13093","Dooly County",2774,2611,2533,2529,2541,2651,3269,3497,3542,32.9,30.6,29.4,29.6,29.8,29.7,28.8,31.2,31.9,32.151995,-83.807167
"437","Georgia","13095","Dougherty County",19160,19080,19740,19970,19950,18555,18322,18380,19520,29.3,29.2,30.3,30.2,30.1,27.9,27.5,27.5,29.1,31.535068,-84.214444
"438","Georgia","13097","Douglas County",22280,23600,22390,20320,20960,22302,24558,23545,24380,29.7,29.8,26.7,23.8,23.8,25.4,26.8,25.4,26,33.699317,-84.765944
"439","Georgia","13099","Early County",2748,2787,2718,2645,2532,2479,2326,2341,2385,33.1,33.5,32.6,31.9,30.6,30.6,29.9,30.5,31.2,31.324191,-84.906723
"440","Georgia","13101","Echols County",711.9,745,720.3,686.6,673.9,727,740,781,806,24.5,25.1,24,23.4,23,23.5,26.9,27.7,28.4,30.7085,-82.836132
"441","Georgia","13103","Effingham County",8529,8576,8364,8242,8351,9378,8913,9520,8669,27.4,25.9,24,23.2,22.8,25.5,24.8,26.1,23.3,32.361711,-81.343337
"442","Georgia","13105","Elbert County",4836,4815,4974,4804,4846,4720,4613,4449,4324,31.6,31.5,32.4,31.7,31.8,31.5,31,30,29.3,34.115017,-82.842057
"443","Georgia","13107","Emanuel County",4844,5424,5098,4824,4344,4493,4504,4650,5060,31.2,34.4,31.6,30,26.4,27.5,27.7,28.5,30.4,32.5911,-82.299763
"444","Georgia","13109","Evans County",2697,2547,2511,2359,2406,2391,2531,2409,2278,33.9,31.8,31.2,29.3,29.4,29,32.1,30.6,29.6,32.151902,-81.887618
"445","Georgia","13111","Fannin County",4389,4443,5240,4919,4996,4599,4702,4778,4812,26.1,26.2,30.1,28.3,28.7,25.8,25.1,25.6,25.7,34.863837,-84.319287
"446","Georgia","13113","Fayette County",17780,18490,16960,15940,16840,15703,16627,16885,15930,24.5,24.5,21.7,20.5,21.3,21,21.8,21.9,20.6,33.412717,-84.493941
"447","Georgia","13115","Floyd County",20390,18970,19050,18320,19890,20357,21607,20150,20700,30,27.8,27.7,26.6,28.7,29.5,31.1,28.9,29.6,34.263677,-85.21373
"448","Georgia","13117","Forsyth County",16770,17990,18910,22260,23390,23631,21196,20964,23940,18,18.1,17.7,20.4,20.3,19.9,17.7,16.9,18.7,34.225143,-84.127336
"449","Georgia","13119","Franklin County",4856,4812,4765,4154,4187,4155,4944,5177,5748,30.7,30.1,29.6,25.9,26.1,26,30.1,31.6,35,34.375155,-83.22729
"450","Georgia","13121","Fulton County",142100,149300,147700,142900,149300,145229,132719,127709,133900,21.7,22.2,21.3,19.9,20.4,19.3,19.6,18.4,18.7,33.790034,-84.468182
"451","Georgia","13123","Gilmer County",5184,5523,5199,5220,4876,5503,6033,5907,6138,26.2,27.2,24.8,25.1,23.4,25.6,28.1,27.5,28.4,34.690541,-84.453984
"452","Georgia","13125","Glascock County",594.8,604.9,609.5,557.3,550.3,581,631,646,603,29.7,30.1,29.7,27.3,26.7,29.3,28.7,28.6,26.7,33.227491,-82.606913
"453","Georgia","13127","Glynn County",13240,12490,11910,12550,12980,14205,16555,16908,17540,25.8,24,22.2,23.1,23.6,25.6,28.2,28.6,29.2,31.212746,-81.496517
"454","Georgia","13129","Gordon County",9056,9824,9612,9396,10450,10691,9824,8730,9536,25.7,27.2,26,25.5,28,28.6,25.3,22.2,24,34.509667,-84.873862
"455","Georgia","13131","Grady County",4976,5100,5471,5416,5258,5352,5382,5522,5825,29,29.3,30.7,30.4,29.3,30.3,29.8,30.3,31.8,30.875863,-84.244772
"456","Georgia","13133","Greene County",3621,3663,3592,3462,3293,3314,3476,3795,3891,31.5,31.4,30.8,29.5,28,27.4,28,30.3,30.7,33.576836,-83.167103
"457","Georgia","13135","Gwinnett County",105700,108700,117800,114800,113600,109426,116570,114864,123200,21.7,21.6,22.5,21.6,21,20.1,21.1,20.2,21.3,33.959101,-84.022938
"458","Georgia","13137","Habersham County",8632,7898,7768,7929,7939,8331,8453,9226,9452,30.2,27.1,25.7,25.7,25.3,26.5,26.7,29.1,29.4,34.635108,-83.526406
"459","Georgia","13139","Hall County",27290,30590,31510,29710,28890,28085,30841,29381,30890,24.4,26.4,26.1,23.9,22.7,21.7,24.7,23,23.8,34.317588,-83.818497
"460","Georgia","13141","Hancock County",2261,2292,2304,2200,2137,2075,2157,2123,2138,30.6,31.2,31.2,30,29.4,29.2,28.6,28.3,29.5,33.26922,-83.000465
"461","Georgia","13143","Haralson County",6348,6107,5785,5285,5581,5895,6030,5805,5808,31.3,29.6,27.7,25.5,26.6,28.4,29,28,28,33.795165,-85.220062
"462","Georgia","13145","Harris County",5625,5606,5406,4826,4939,4539,5270,5088,5639,28.4,27.3,25.2,22.6,22.8,20.7,22.2,21.1,23.1,32.731549,-84.912432
"463","Georgia","13147","Hart County",5201,5294,5339,4817,4952,4648,4991,4789,5552,29.5,29.5,29.3,26.6,27.1,25.8,26.3,24.9,28.6,34.348733,-82.96329
"464","Georgia","13149","Heard County",2337,2327,2339,2179,2166,2317,2454,2353,2383,29.5,29,28.7,26.9,26.4,28,29,27.8,28.1,33.290968,-85.139594
"465","Georgia","13151","Henry County",28220,29100,30160,28200,30040,29964,34303,33668,33990,25.6,24.8,24.3,22.4,23.1,23,24.6,23.6,23.7,33.452881,-84.15444
"466","Georgia","13153","Houston County",22920,22900,22800,23390,24050,24471,24622,25755,24810,26.5,26,25.4,25.6,25.8,25.7,24.8,25.2,23.8,32.458381,-83.662856
"467","Georgia","13155","Irwin County",2070,2319,2216,1954,1933,1866,1883,1856,2158,30.1,31.8,29.6,27.6,25.9,26,26.7,25.8,29.7,31.604306,-83.277037
"468","Georgia","13157","Jackson County",10200,10320,10700,10470,10670,11775,11457,11195,11920,28.6,27.3,26.4,24.9,24.5,26,26.5,25.9,27.5,34.134157,-83.565133
"469","Georgia","13159","Jasper County",2613,2816,2889,2785,2782,2846,2971,2889,2986,28.4,29.6,29.1,28.4,27.8,28.3,29.4,28.8,30,33.314905,-83.687892
"470","Georgia","13161","Jeff Davis County",2709,2705,2731,2475,2453,2476,3246,3138,3298,30,29.5,29.3,26.6,26.1,26.4,30.8,29.7,31.1,31.811615,-82.636825
"471","Georgia","13163","Jefferson County",4055,3888,3674,3419,3586,3585,3711,3359,3566,34.5,33.1,31.2,29.3,30.6,30.7,30.4,27.6,29.7,33.051874,-82.41905
"472","Georgia","13165","Jenkins County",1913,1987,1954,1779,1812,1653,1588,1624,1930,31.7,32.5,31.8,29.2,29.7,27.6,27.2,28,28.3,32.794563,-81.971524
"473","Georgia","13167","Johnson County",2183,2154,2165,2244,2136,2108,2359,2361,2415,32.2,31.9,31.6,31.1,29.4,29.7,30.7,30.8,31.5,32.689831,-82.661354
"474","Georgia","13169","Jones County",5554,6154,6595,6257,6032,6089,6069,5901,6045,29.3,31.6,33.4,31.5,29.8,30.3,29.6,28.4,29.2,33.020226,-83.562339
"475","Georgia","13171","Lamar County",3618,3347,3514,3506,3509,3484,3709,3768,3971,30.5,27.9,29.1,28.8,28.7,27.5,28.2,28.7,30.3,33.07446,-84.146721
"476","Georgia","13173","Lanier County",1491,1439,1461,1442,1573,1763,2114,1996,2168,28.2,26.8,26.4,25.3,26.5,29.4,29.8,26.9,28.4,31.038197,-83.063164
"477","Georgia","13175","Laurens County",10210,10900,11130,10750,10750,9974,10668,10097,10980,30.6,32.3,32.7,31.5,31.3,29.2,30.8,29.1,31.6,32.39322,-82.926317
"478","Georgia","13177","Lee County",4930,5357,6094,5820,6036,5772,4851,5080,4979,23.5,24.3,26.2,24.8,24.8,23.9,24.6,25.3,24.7,31.818419,-84.146681
"479","Georgia","13179","Liberty County",10010,11380,11660,10410,9015,10388,11372,12425,12260,27.1,30.8,30.8,27.9,24.9,25.6,27.3,28.5,27.6,31.807244,-81.457969
"480","Georgia","13181","Lincoln County",1767,1770,1828,1814,1827,1824,1945,1872,1838,28.3,28.3,29.2,29.2,29.3,30.4,31.8,30.6,30.1,33.792151,-82.448299
"481","Georgia","13183","Long County",2007,2229,2121,2035,1949,2072,2572,2683,3077,27.7,30.1,27.7,26.8,25.2,24.4,26.4,26.1,28,31.749563,-81.74287
"482","Georgia","13185","Lowndes County",20380,18360,17530,17970,19270,20437,21071,22411,22870,30.4,27.1,25.5,25.2,26.3,27,27.3,28.4,28.5,30.83368,-83.268967
"483","Georgia","13187","Lumpkin County",4621,4709,4639,4359,4286,4101,4864,5127,5942,27.2,26.9,25.3,23,22.2,20.4,22,22.6,26.1,34.568149,-83.998827
"484","Georgia","13189","McDuffie County",4748,4779,4504,4285,4210,4286,4535,4642,4765,31.3,31.2,29,28.1,27.2,27.7,29,29.9,30.6,33.482464,-82.473188
"485","Georgia","13191","McIntosh County",2726,2649,2745,2667,2632,2523,3118,3278,3111,34.5,33.6,33.9,32.4,31.8,30.3,28.7,29.9,28.8,31.482978,-81.370199
"486","Georgia","13193","Macon County",3247,3152,3038,3029,2932,2663,2996,3196,3539,33,32.3,30.7,30.7,29.6,27.2,27.2,29,32.3,32.366216,-84.052162
"487","Georgia","13195","Madison County",5909,6604,6279,5557,4928,5058,5548,5702,5863,30,33,30.8,27.1,23.8,24.6,27,27.7,28.3,34.128485,-83.203637
"488","Georgia","13197","Marion County",1479,1458,1473,1358,1381,1336,2045,2081,2017,29.6,28.8,29,27.3,27.8,27.1,32,32.6,31.3,32.359538,-84.529561
"489","Georgia","13199","Meriwether County",5125,5554,5363,4980,4619,4582,4686,5043,5216,31.5,33.9,32.5,30.3,27.8,27.5,29.1,31.4,32.6,33.03022,-84.663279
"490","Georgia","13201","Miller County",1321,1338,1349,1321,1296,1552,1703,1587,1550,29.4,29.8,29.6,29.2,28.4,33.8,37.4,35.4,34.9,31.162908,-84.730386
"491","Georgia","13205","Mitchell County",5166,5148,5239,5061,5180,5262,5583,5436,5135,30.2,30.1,30.4,28.8,29.4,30.6,32.8,31.8,30.3,31.22894,-84.192407
"492","Georgia","13207","Monroe County",5440,4856,4989,4665,5034,5034,5349,5397,5609,31.9,27.8,27.5,25,26.8,26.7,27,26.9,27.7,33.017435,-83.922938
"493","Georgia","13209","Montgomery County",2015,1883,1823,1763,1666,1705,1854,2010,1991,31.6,29.5,28.2,27.3,25.9,26.8,27.8,30.1,30,32.172108,-82.533349
"494","Georgia","13211","Morgan County",3898,3898,3881,3467,3330,3429,3522,3586,3571,31.6,30.5,29.6,26.3,24.7,25.6,27,27.3,27.2,33.593732,-83.492324
"495","Georgia","13213","Murray County",8671,8391,8147,7232,7599,8973,9344,8881,8895,30.4,29.1,27.8,25.4,26.8,31.5,33.6,31.7,31.6,34.797097,-84.73799
"496","Georgia","13215","Muscogee County",35930,36310,36850,35570,35630,37535,40104,39336,39790,28.1,28.4,28.5,27.3,27.2,27.9,29.6,28.3,27.9,32.510197,-84.874946
"497","Georgia","13217","Newton County",16740,17530,17560,17020,17790,17460,18566,17682,20630,29.5,29.1,27.6,26.3,26.7,25.8,27.2,25.5,29.5,33.544045,-83.855189
"498","Georgia","13219","Oconee County",4774,5061,5462,5006,5272,5057,5270,5056,5083,23.7,24.1,24.9,22.5,22.8,22,23,21.7,21.6,33.834125,-83.437728
"499","Georgia","13221","Oglethorpe County",2913,2808,2785,2420,2456,2588,2942,2833,2921,29.6,28.3,27.2,23.8,23.8,24.4,26.8,25.8,26.5,33.866806,-83.074081
"500","Georgia","13223","Paulding County",18580,18770,20380,20540,22620,22769,24721,23724,26170,25.8,24.4,24.4,24,25.3,24.8,25.8,24.3,26.4,33.920903,-84.866979
"501","Georgia","13225","Peach County",5562,5824,5403,5422,5172,5620,5653,5353,5537,31.8,33.1,30.2,29.5,27.1,28.6,29,27.4,28.1,32.571324,-83.831978
"502","Georgia","13227","Pickens County",5165,5352,5280,5341,5474,5674,5244,5057,5129,24.7,24.9,23.4,23.4,23.3,23.8,23.6,22.6,22.9,34.456621,-84.490256
"503","Georgia","13229","Pierce County",3546,3707,3976,3649,3651,3756,4118,4242,4552,29.4,29.8,31.3,28.4,28,28.5,30.6,31.6,33.4,31.353988,-82.210427
"504","Georgia","13231","Pike County",3112,3439,3694,3304,3333,3237,3684,3798,3728,27.6,29.4,30,26.6,26.1,25.9,29.2,30,29.2,33.090768,-84.386627
"505","Georgia","13233","Polk County",7254,8922,9398,8963,7862,8055,8238,9101,8927,25.4,31,32.2,30.6,26.5,27,28.1,31,30.4,33.995961,-85.186826
"506","Georgia","13235","Pulaski County",2384,2294,2292,2238,2284,2311,2823,2855,2808,32.6,31.4,30.8,30.2,31,30.9,31,31.4,30.8,32.238794,-83.481855
"507","Georgia","13237","Putnam County",4202,4277,4408,4333,4142,4016,4114,3953,3972,28.3,28.7,29.1,28.3,26.9,25.6,25.4,24.3,24.5,33.32106,-83.37179
"508","Georgia","13239","Quitman County",594.6,585.2,577.9,587.7,591.3,639,584,574,569,32.9,32.1,31.3,30.1,29.9,32.4,30.1,30.1,30.3,31.861487,-85.009317
"509","Georgia","13241","Rabun County",3868,3731,3388,3106,3103,3206,3057,3149,3042,31.6,30,27.1,24.7,24.7,25.2,24.5,25.1,23.9,34.883026,-83.404735
"510","Georgia","13243","Randolph County",1601,1574,1592,1617,1607,1700,1981,1940,1899,31.3,31,31.1,31.5,31.7,33.4,34.7,34.3,34.5,31.762651,-84.752311
"511","Georgia","13245","Richmond County",40690,41700,42340,42360,41060,38992,40390,40143,41270,30,31,31.5,30.6,29.2,27.6,28,27.7,27.9,33.361487,-82.074998
"512","Georgia","13247","Rockdale County",14620,14820,14280,14100,14730,15826,17581,17547,17050,27.1,26.9,25.2,24.6,25.2,27.3,29.3,28.9,28,33.652081,-84.02637
"513","Georgia","13249","Schley County",803.4,813.3,790.4,745.6,776.8,795,927,922,964,28.4,28.1,26.6,25.8,26,27.7,27.5,26.7,27.9,32.263441,-84.322724
"514","Georgia","13251","Screven County",3466,3350,3420,3209,3268,3300,3583,3436,3340,32.2,31,31.6,29.8,30,30.6,34.4,32.9,31.8,32.744751,-81.617585
"515","Georgia","13253","Seminole County",2047,2215,2107,1920,1805,1809,2042,2069,2173,30.7,33.3,31.6,29.1,27.3,27.2,31.3,31.7,32.3,30.933894,-84.867592
"516","Georgia","13255","Spalding County",12620,15170,15050,13430,13260,12844,13181,12613,13160,29.4,35.1,34.3,30.4,29.5,28.1,28.6,27.1,28.2,33.262389,-84.286067
"517","Georgia","13257","Stephens County",5274,4991,5217,5089,5295,5434,5221,5687,5515,28.6,27,28.1,27.4,28.2,28.7,26.9,29.4,28.7,34.552914,-83.290216
"518","Georgia","13259","Stewart County",1212,1222,1188,1124,1093,1068,1413,1442,1484,33.3,34.1,34,32.1,31,30.7,28.5,28.9,29.5,32.073225,-84.834912
"519","Georgia","13261","Sumter County",6619,7028,6694,6547,6472,6785,7069,6560,6428,29.4,31.4,29.9,29,28.7,30.2,30.4,28.8,28.5,32.042203,-84.204283
"520","Georgia","13263","Talbot County",1480,1529,1523,1488,1469,1450,1607,1584,1576,30.2,30.8,30.9,30.2,30.4,30.2,30.8,30.4,30.8,32.704603,-84.530029
"521","Georgia","13265","Taliaferro County",499,479.4,483.7,463.4,455.2,454,436,413,415,35.1,34.4,33.8,31.4,31,31.9,32.8,30.9,31.1,33.559314,-82.875208
"522","Georgia","13267","Tattnall County",5125,5065,5177,4894,4731,5043,6028,6217,5869,29.9,29.3,29.5,28.4,27.1,27.5,30.8,32.1,30.3,32.043768,-82.059208
"523","Georgia","13269","Taylor County",2053,2119,2059,2000,1865,1866,1893,1940,1989,32.4,33.4,32.6,31.7,29.4,30.3,29.7,31.2,31.8,32.554667,-84.251426
"524","Georgia","13271","Telfair County",3365,3441,3361,2980,2866,2682,3974,4045,4181,32.4,32.9,32.4,28.4,27.2,27,31,31.6,32.1,31.913639,-82.931062
"525","Georgia","13273","Terrell County",2439,2368,2313,2273,2265,2285,2081,1984,2032,32,31.7,31.1,31.2,30.8,30.6,30.5,29.5,30.5,31.777191,-84.439446
"526","Georgia","13275","Thomas County",9604,10600,10180,9420,8901,9806,8526,8553,7880,30.6,32.9,31.1,28.7,26.8,29.6,26.2,26.3,24.1,30.864616,-83.919783
"527","Georgia","13277","Tift County",8125,8001,8106,8112,8141,8683,8629,8603,8649,29.1,28.3,28,28.2,27.7,29.2,30.6,29.5,29.8,31.457003,-83.525931
"528","Georgia","13279","Toombs County",5529,5695,5788,5563,5818,6389,5927,5666,5029,29.7,30.1,29.9,28.7,29.5,32.4,31.2,29.8,26.5,32.126698,-82.332071
"529","Georgia","13281","Towns County",2274,2440,2375,2335,2406,2585,2373,2135,2318,28,29.5,27.9,27.2,27.6,29.5,28.4,25.6,27.7,34.90265,-83.732158
"530","Georgia","13283","Treutlen County",1602,1553,1444,1386,1369,1474,1540,1549,1698,31.7,31.9,29.1,27.6,26.7,28.9,31,31.1,34.2,32.409586,-82.570882
"531","Georgia","13285","Troup County",12260,11970,12450,12580,13070,13309,14229,14184,14240,28.4,27.1,27.8,28.1,28.8,29.3,30,29.5,29.3,33.034482,-85.02836
"532","Georgia","13287","Turner County",2008,2023,1991,1934,1913,2189,2287,2167,2003,30.6,30.8,30.7,29.9,29.6,33.4,35.2,33.1,32.8,31.718232,-83.628566
"533","Georgia","13289","Twiggs County",2324,2308,2341,2248,2242,2309,2194,2086,2131,30.4,30.6,31.1,29.4,29.2,30.5,31.9,30.8,31.8,32.665847,-83.425879
"534","Georgia","13291","Union County",4246,4506,4715,4441,4501,4380,4760,4537,4602,27.3,28.2,28.6,27,26.8,25.9,27.8,26.3,26.5,34.83377,-83.989573
"535","Georgia","13293","Upson County",6339,6066,5646,5427,5426,5535,5614,5845,6018,31.6,30.1,27.9,26.8,26.8,27.6,28.1,29.2,30.2,32.881837,-84.292281
"536","Georgia","13295","Walker County",13540,12980,14670,15280,16590,17363,17201,16418,16170,28.9,27.3,30.4,31.9,34.4,36.1,33.7,32.1,31.7,34.735827,-85.305385
"537","Georgia","13297","Walton County",12800,15030,14860,15310,16120,19179,17462,15776,14680,25.2,27.9,26.1,26.1,26.5,31,29.4,26.3,24.3,33.782648,-83.734215
"538","Georgia","13299","Ware County",8325,8387,8284,8228,8507,9161,8886,8282,7975,32.2,32.3,31.5,31.2,32.2,35,33.1,30.9,30,31.050881,-82.421507
"539","Georgia","13301","Warren County",1417,1418,1377,1363,1304,1224,1250,1348,1389,31.8,32,31.7,31.4,30.2,28.6,29.1,31.6,33,33.419169,-82.688012
"540","Georgia","13303","Washington County",5037,4515,4696,4578,4510,4258,4333,4446,4781,33.2,31.4,31.2,29.8,29.1,27.8,27.8,28.5,30.7,32.971848,-82.798112
"541","Georgia","13305","Wayne County",6942,6691,6180,5585,6076,6712,6767,6549,6628,33.8,32.1,29.1,26.5,28.3,31.8,30.9,29.6,29.8,31.547845,-81.912376
"542","Georgia","13307","Webster County",537.9,515.6,494.9,465.9,456,457,605,609,638,31.6,31,29.7,28.1,28.2,28.1,29.9,29.6,30.8,32.046554,-84.553218
"543","Georgia","13309","Wheeler County",1324,1350,1456,1507,1513,1417,1876,1989,2081,26.2,25.7,26.7,27.8,27.7,25.9,30.4,30.5,32.5,32.109276,-82.738701
"544","Georgia","13311","White County",4750,4993,5642,5440,5110,4546,5026,5001,5437,27,27.7,30.3,29.4,27.2,24.2,24.8,24.3,26.2,34.643677,-83.743713
"545","Georgia","13313","Whitfield County",17020,15470,16130,16040,17320,17765,22548,23390,22780,27.8,24.9,25.7,25.4,27.4,28.1,32,32.8,31.7,34.801726,-84.968541
"546","Georgia","13315","Wilcox County",1931,2107,2119,2217,2205,2249,2037,1995,1928,28.9,31.9,31.6,33.4,32.2,32.3,27.8,27.7,27.3,31.962717,-83.438262
"547","Georgia","13317","Wilkes County",2479,2562,2600,2495,2413,2356,2216,2296,2314,31.4,32.5,32.9,32.2,31,30.3,28.1,29.7,30.4,33.77904,-82.747922
"548","Georgia","13319","Wilkinson County",2332,2369,2288,2171,2128,2036,1929,2016,2103,32,32.7,31.7,30,29.5,28.3,27.5,29,29.8,32.804321,-83.175587
"549","Georgia","13321","Worth County",4370,4462,4502,4415,4201,4220,4225,4633,4941,28.3,28.7,28.8,28.8,27,27.3,26.9,28.9,30.9,31.551773,-83.84996
"550","Hawaii","15001","Hawaii County",21890,23490,23040,23250,23360,24301,26097,26725,27890,18.5,19.2,18.2,17.9,17.7,18.4,18.8,19,19.6,19.597764,-155.502443
"551","Hawaii","15003","Honolulu County",125900,127300,122800,122800,123900,128276,139975,133936,137800,19,19,18.2,18,18.2,18.8,19.4,18.3,18.7,21.461364,-158.201976
"552","Hawaii","15005","Kalawao County",25.58,25.51,24.54,23.76,23.54,16,20,20,21,21.9,21.8,21,20.1,20.1,20,22.1,22,23.1,21.218764,-156.97401
"553","Hawaii","15007","Kauai County",8259,7856,7476,7682,7717,8002,8597,8695,9797,18.3,17.1,16,16.3,16.1,16.5,17,17,19,22.012038,-159.705965
"554","Hawaii","15009","Maui County",18050,16560,16960,16980,18180,17862,20492,20100,22040,17.8,16,16.1,15.9,16.8,16.5,17.7,17.1,18.6,20.855931,-156.60155
"555","Idaho","16001","Ada County",37330,38430,40550,40910,41570,40897,42855,44271,47940,15.7,15.5,15.7,15.4,15.3,14.8,15.3,15.4,16.3,43.447861,-116.244456
"556","Idaho","16003","Adams County",596.5,654.2,618.8,641.8,606.4,658,726,722,696,22.3,23.9,22.8,23.4,22.3,23.9,23.2,23,22.1,44.884583,-116.431873
"557","Idaho","16005","Bannock County",10020,10210,11080,11280,11030,11541,11600,11510,11610,18.8,19.2,20.7,20.6,20.1,20.2,20.1,19.8,19.8,42.692938,-112.228986
"558","Idaho","16007","Bear Lake County",1027,1022,1058,1132,1147,1249,1206,1122,1015,24.1,23.9,24.5,27.5,27.8,30.9,28.6,26.7,24.5,42.285833,-111.327445
"559","Idaho","16009","Benewah County",1488,1493,1500,1783,1928,2021,1768,1620,1732,22.7,22.3,21.8,26.2,27.8,29.7,25.7,23.7,25.2,47.218451,-116.633541
"560","Idaho","16011","Bingham County",5784,6887,7513,7401,6805,6577,6765,6948,7528,20.8,24.2,26.1,26,23.6,23.1,23,23.4,25.5,43.216357,-112.399206
"561","Idaho","16013","Blaine County",2106,2038,2140,2014,2088,2213,2311,2257,2128,13.4,12.8,13.3,12.5,12.8,13.3,14.6,14.4,13.6,43.394482,-113.95529
"562","Idaho","16015","Boise County",1212,1138,1212,1239,1308,1133,1159,1167,1315,22.2,20.4,21,21.6,22.8,19.7,21.6,21.5,24.6,43.987275,-115.71511
"563","Idaho","16017","Bonner County",6192,6013,6202,5976,5959,6346,6375,6907,6937,20.7,19.5,19.7,19.1,18.9,20,20.4,22,22.2,48.312512,-116.59694
"564","Idaho","16019","Bonneville County",12030,12480,13100,12910,13550,13641,13348,13233,14060,20,20.2,20.4,19.9,20.3,20.5,19.3,18.9,19.9,43.395171,-111.621878
"565","Idaho","16021","Boundary County",1556,1614,1773,1983,2069,2152,1937,1728,1989,21,21.2,22.5,25,25.7,27.3,24.2,21.9,24.9,48.773065,-116.524619
"566","Idaho","16023","Butte County",457.2,426.1,417.2,483,527.2,486,448,443,465,23.1,21.8,21.4,24.3,26.7,25,22.1,22.3,23.9,43.6851,-113.177627
"567","Idaho","16025","Camas County",153.3,162.1,160.1,169.4,178.2,177,174,157,172,19.9,19.9,18.9,20.1,20.6,21.3,20.5,19,21.6,43.463396,-114.804427
"568","Idaho","16027","Canyon County",24010,26040,25270,25280,25130,27602,28152,28291,28930,22.6,23.4,21.6,21.3,20.6,22.5,22.7,22.4,22.4,43.623051,-116.708527
"569","Idaho","16029","Caribou County",1172,1094,1036,1076,1135,1309,1299,1223,1190,23.5,22.1,21,22.2,23.4,27.5,26.9,25.8,25.3,42.786273,-111.544171
"570","Idaho","16031","Cassia County",3438,3368,3262,2899,3414,3246,3494,3522,3645,24.9,24.3,23.5,21.1,24.4,23.7,23.6,23.7,24.2,42.288635,-113.605498
"571","Idaho","16033","Clark County",126.8,139.1,145.8,154.9,147.4,149,146,140,149,20.2,22.7,23.7,24.8,23.8,23.1,22.4,21.7,24.8,44.286251,-112.36112
"572","Idaho","16035","Clearwater County",1576,1626,1555,1603,1623,1723,1787,1631,1466,24.3,24.8,23.5,24.4,24.6,27,25.5,23.3,21,46.67257,-115.6535
"573","Idaho","16037","Custer County",712.8,707.8,709,748.6,791.4,792,788,784,788,23,22.6,21.9,23,23.6,24.2,22.9,22.8,22.9,44.273341,-114.252251
"574","Idaho","16039","Elmore County",4190,4159,4249,4722,4546,4762,4270,4645,5064,21.2,21.5,22.1,24,22.9,23,22.8,25.4,27.4,43.394826,-115.470751
"575","Idaho","16041","Franklin County",1488,1464,1566,1727,1794,1890,1896,1776,1814,19.5,18.7,19.7,22.1,22.2,23.9,23.7,22.2,22.5,42.173589,-111.822955
"576","Idaho","16043","Fremont County",1496,1750,1678,2056,1963,1916,1726,1724,1714,18.5,21.7,20.5,24.6,23.5,22.9,19.7,19.8,19.6,44.218091,-111.484429
"577","Idaho","16045","Gem County",2781,3067,3184,3570,3371,3181,2770,2711,2830,24.2,25.9,26.2,29.7,27.8,26.8,22.7,22,22.9,44.061473,-116.398784
"578","Idaho","16047","Gooding County",2792,2709,2471,2438,2511,2652,2804,2439,2478,28.1,27.2,24.9,24.9,25.5,27.2,26.7,23.3,23.8,42.973185,-114.82142
"579","Idaho","16049","Idaho County",2594,2754,3077,3210,3188,3059,3219,3133,3013,22.1,23.2,25.6,27.1,26.7,26,25.6,24.6,23.8,45.849237,-115.467376
"580","Idaho","16051","Jefferson County",2954,3234,3021,2967,3379,3586,3842,3560,3796,22.2,23.2,20.8,20,21.6,23.6,23.6,21.6,22.8,43.796965,-112.318588
"581","Idaho","16053","Jerome County",3171,3615,3726,3487,3103,2741,2931,3072,3377,24.5,27.4,27.6,26.1,22.8,19.7,19.7,20.7,22.7,42.691171,-114.263009
"582","Idaho","16055","Kootenai County",16030,16820,17670,18540,20560,20576,18641,18012,19120,18.2,18.2,18.4,19,20.5,20.1,18.5,17.5,18.3,47.677113,-116.694918
"583","Idaho","16057","Latah County",3446,3970,4396,4631,4528,4863,4813,4425,4755,13.6,15.7,17.4,17.5,17.3,17.2,17.4,15.8,16.8,46.81892,-116.730974
"584","Idaho","16059","Lemhi County",1176,1296,1335,1315,1331,1098,1057,1131,1333,19.9,21.7,22,22.1,22,18.1,16.9,18,21.6,44.928789,-113.887841
"585","Idaho","16061","Lewis County",753.9,777.8,804.1,719.3,688.1,756,687,627,627,27.2,27.9,28.5,26.7,25.2,26.7,23.6,21.6,21.3,46.236328,-116.42376
"586","Idaho","16063","Lincoln County",628.8,628.6,652.5,618.8,645.4,718,822,803,791,21.6,20.5,21.2,20.6,21.4,23.7,24.3,23.9,22.9,42.986181,-114.153899
"587","Idaho","16065","Madison County",3132,3101,3027,3615,4124,4758,5008,4217,3999,18.4,17.8,17.4,17.3,19.7,21.3,21.2,17.3,16.3,43.789709,-111.65655
"588","Idaho","16067","Minidoka County",3121,3317,3309,3520,3311,3379,3659,3273,3056,24.1,25.8,25.7,27.7,25.9,26.6,26.8,23.9,22.2,42.856937,-113.64001
"589","Idaho","16069","Nez Perce County",6438,6473,6385,6100,6875,7110,7135,6820,7282,22.9,22.8,22.2,20.8,23.4,24,24.1,22.9,24.2,46.333766,-116.760903
"590","Idaho","16071","Oneida County",695,750.9,741.5,772.4,791.1,790,673,576,555,24.4,25.7,25,26.5,26.9,27.3,23.1,19.9,19,42.18389,-112.520465
"591","Idaho","16073","Owyhee County",2115,2025,1966,1767,1743,2251,2395,2075,2289,28.3,27,25.9,23.7,23.2,29.2,30.5,26.5,29,42.593063,-116.142655
"592","Idaho","16075","Payette County",3459,3607,3580,3826,3929,4073,3805,3680,3741,23.3,23.6,22.7,24.1,24.4,25.5,24.4,23.6,23.7,44.00274,-116.748655
"593","Idaho","16077","Power County",1086,1204,1285,1137,1184,1253,1275,1050,1219,21.5,23.6,24.3,22,22.7,24.5,24.5,20.3,23.5,42.694126,-112.844407
"594","Idaho","16079","Shoshone County",2690,2754,2567,2643,2849,2805,2624,2537,2760,27.3,27.5,25.3,26.5,28.4,28.7,26.8,26,28,47.347694,-115.885092
"595","Idaho","16081","Teton County",667.9,755.9,849.6,995.1,1104,1040,1038,1026,1141,14,15.1,16.1,17.8,18.6,16.4,14.9,14.6,16.4,43.760994,-111.211765
"596","Idaho","16083","Twin Falls County",10370,11000,11850,11930,12020,12603,12129,11758,12610,21.7,22.4,23.4,23.2,22.9,23.8,22.4,21.5,22.9,42.352309,-114.665639
"597","Idaho","16085","Valley County",1202,1239,1368,1525,1546,1632,1863,1640,1594,19.7,19.3,20,22.2,22.6,24.4,24.1,21.5,21,44.771532,-115.637875
"598","Idaho","16087","Washington County",1664,1721,1684,1966,1974,1959,1965,1913,2091,23.1,23.6,22.6,26.4,26.2,27,26.4,25.7,28.5,44.448213,-116.79783
"599","Illinois","17001","Adams County",14450,12420,12430,13380,14870,17104,14363,12403,12080,29.4,25.1,24.9,26.9,29.8,34.2,28.8,24.8,24,39.986052,-91.194961
"600","Illinois","17003","Alexander County",1854,1785,1753,1803,1763,1837,1850,1749,1735,27.8,27.7,27.7,28.8,29.3,31.4,30.3,29.1,29.6,37.183683,-89.349506
"601","Illinois","17005","Bond County",3549,3271,3135,3322,3800,4306,4043,3666,3497,26.1,24,22.8,24.2,27.5,31.4,29.7,27,25.8,38.885924,-89.436592
"602","Illinois","17007","Boone County",8045,8457,8833,9227,9497,9705,9297,9225,8848,23.6,23.6,23.4,24.5,24.8,26.4,25.1,24.7,23.5,42.318983,-88.824295
"603","Illinois","17009","Brown County",1315,1258,1253,1300,1372,1466,1562,1533,1561,23.7,22.9,23,24,25.4,27.6,27.8,27.2,27.4,39.962069,-90.750309
"604","Illinois","17011","Bureau County",7191,6624,6605,6337,7112,7630,8130,8128,7267,27.7,25.3,25,24.2,27.1,29.7,31.3,31.3,28.1,41.401304,-89.528377
"605","Illinois","17013","Calhoun County",994.1,964.4,959.5,1055,1091,1322,1299,1249,1167,25.3,24.3,24,26.5,27.5,34.2,33.5,32.3,30.3,39.164262,-90.666295
"606","Illinois","17015","Carroll County",3388,3291,3100,3375,3479,3936,3174,3019,3129,27.6,26.8,25.2,27.5,28.2,32.5,26.8,25.6,26.7,42.059084,-89.926485
"607","Illinois","17017","Cass County",2537,2572,2450,2515,2645,2970,2980,2609,2488,25.1,25.3,24.2,25,26.6,30.1,30.1,26.3,25.4,39.969202,-90.245704
"608","Illinois","17019","Champaign County",28060,30630,32230,35400,34160,34997,32790,30750,31320,21.2,23,24,25.8,24.7,25.1,22,20.6,20.8,40.13915,-88.197201
"609","Illinois","17021","Christian County",6887,6652,6647,7036,6862,6935,7420,8096,8481,26.1,25.2,25.2,27,26.3,27.1,28.4,30.8,32.3,39.545524,-89.279593
"610","Illinois","17023","Clark County",3172,3103,3156,3478,3591,3965,3305,3321,3442,25.2,24.4,24.7,27.5,28.3,31.8,27.1,27.3,28.2,39.332364,-87.791687
"611","Illinois","17025","Clay County",2835,2701,2581,2791,2866,3195,3164,3466,3414,26.7,25.5,24.4,26.6,27.6,31.6,30.8,33.6,33,38.747312,-88.483789
"612","Illinois","17027","Clinton County",6918,6546,6538,6739,7414,7632,8695,8584,8627,25.8,24.2,23.7,24.5,26.7,28.1,30.7,29.9,29.9,38.606423,-89.423136
"613","Illinois","17029","Coles County",8876,8665,8912,9702,10110,9618,8949,9179,9674,23,22.6,23.3,25.3,25.9,24.9,22.1,22.6,23.7,39.51368,-88.220782
"614","Illinois","17031","Cook County",873000,833900,811100,859600,881600,911408,851472,822030,777400,22.9,22,21.4,22.5,23.1,23.6,22.2,21.3,20,41.894294,-87.645455
"615","Illinois","17033","Crawford County",3987,3892,3893,4020,4178,4836,4828,4346,4007,26.2,25.5,25.4,26.4,27.4,32.3,31.7,28.5,26.3,39.00373,-87.757172
"616","Illinois","17035","Cumberland County",2008,1920,1890,2068,2201,2483,2297,2353,2138,25,23.9,23.2,25.6,27.1,31.1,28.1,28.5,26.1,39.273121,-88.240619
"617","Illinois","17037","DeKalb County",14710,15570,15570,17990,18620,18852,16487,15082,16730,21.6,22.2,21.5,24.2,24.5,24.8,21.7,20,22.1,41.894612,-88.768991
"618","Illinois","17039","De Witt County",3184,3055,3053,3186,3231,3475,3561,3554,3276,25.9,24.6,24.3,26,26.3,29.2,28.8,28.6,26.3,40.181499,-88.901853
"619","Illinois","17041","Douglas County",3416,3458,3525,3902,3833,3969,4020,3927,3876,24,24.3,24.7,27.5,27.1,28.9,28,27.5,27,39.766078,-88.222866
"620","Illinois","17043","DuPage County",138400,138300,130400,118500,119900,128615,127842,128462,124600,20.9,20.7,19.5,17.7,17.8,19,19.1,19,18.3,41.852058,-88.086038
"621","Illinois","17045","Edgar County",3972,3899,3708,3660,3867,4196,3727,3373,3333,27.3,26.7,25.3,25.3,26.9,29.8,26.6,24.1,24,39.679037,-87.74711
"622","Illinois","17047","Edwards County",1301,1269,1257,1374,1374,1388,1305,1366,1338,25.4,24.9,24.9,27.3,27.6,28,26,27.3,26.5,38.417095,-88.047941
"623","Illinois","17049","Effingham County",5742,5718,5696,6333,6359,7352,6641,6659,6193,23.4,23.2,23,25.7,25.6,29.5,26.7,26.6,24.6,39.047694,-88.592786
"624","Illinois","17051","Fayette County",3984,4104,4261,4544,4567,5012,4735,4060,4053,24.5,25.1,25.8,27.9,28.7,31.9,28.5,24.3,24.4,39.001125,-89.017923
"625","Illinois","17053","Ford County",2496,2450,2359,2585,2717,3154,3191,2975,2681,24,23.5,22.4,24.6,25.9,31,30.6,28.6,25.7,40.594423,-88.224746
"626","Illinois","17055","Franklin County",8054,7523,7636,8099,8525,9000,8970,8703,8429,27.1,25.1,25.3,27.1,28.5,30.5,30.3,29.3,28.4,37.991848,-88.926246
"627","Illinois","17057","Fulton County",7615,7388,7226,7765,8087,8803,8423,7741,8268,26.4,25.6,25,27.3,28.5,31.2,29.6,27.2,29.2,40.465688,-90.206793
"628","Illinois","17059","Gallatin County",1239,1221,1191,1221,1248,1258,1269,1237,1250,26.3,25.9,25.1,26.4,27,28.6,29.8,29,29.4,37.768677,-88.227964
"629","Illinois","17061","Greene County",2843,2672,2647,2855,2894,3266,2833,2914,2920,26.7,25.1,25.1,27.7,28.4,32.6,27.4,28.1,28.4,39.355444,-90.387757
"630","Illinois","17063","Grundy County",6926,6716,7837,8884,10520,11992,10883,9490,8794,23.1,20.9,23.1,26,30.2,35.1,30.9,26.8,24.7,41.29241,-88.401054
"631","Illinois","17065","Hamilton County",1619,1563,1590,1723,1792,1977,1858,1707,1687,25.7,24.9,25.1,27.4,28.3,32.1,29.3,26.9,26.8,38.085226,-88.539005
"632","Illinois","17067","Hancock County",4000,3703,3683,3830,4040,4311,4531,4383,4164,27.6,25.6,25.5,26.7,28.3,31,31.3,30.3,28.9,40.405792,-91.167987
"633","Illinois","17069","Hardin County",920,889.2,871.1,899.8,906.6,948,944,974,946,24.9,24.3,24.2,25.6,26.3,27.6,28.3,29.3,28.5,37.517852,-88.266148
"634","Illinois","17071","Henderson County",1569,1520,1469,1501,1522,1616,1668,1550,1545,25.3,24.6,24,25.2,25.7,28.1,29.4,27.6,28,40.815141,-90.93848
"635","Illinois","17073","Henry County",9017,9115,9068,10030,10660,11325,10468,9529,10650,24.1,24.2,24,26.9,28.4,31,28.2,25.7,28.6,41.350021,-90.130838
"636","Illinois","17075","Iroquois County",6164,6079,5743,5805,6215,7025,6869,6486,6086,27.3,26.6,25.1,25.5,27.2,32.2,31.2,29.6,27.8,40.748867,-87.833601
"637","Illinois","17077","Jackson County",10140,9539,9379,10980,11220,12045,10754,10820,11290,23.1,21.8,21.5,24.6,25.3,27.3,23.3,23.4,24.5,37.786096,-89.381212
"638","Illinois","17079","Jasper County",1782,1802,1817,1987,1998,2299,2128,2002,1745,24.3,24.5,24.6,27.3,27.3,32.1,29.3,27.4,24,39.004874,-88.150763
"639","Illinois","17081","Jefferson County",8565,8202,7521,7982,7939,9176,8144,8325,7777,28.5,27.1,24.7,26.4,26.2,30.3,27.9,28.4,26.5,38.30078,-88.92421
"640","Illinois","17083","Jersey County",4309,4230,4269,4138,4174,4728,5137,5425,4790,26.2,25.4,25.2,24.7,24.5,28.3,30.2,31.8,28.1,39.080192,-90.361365
"641","Illinois","17085","Jo Daviess County",4114,4031,3978,4030,4226,4223,5290,5128,4924,23.9,23.2,22.7,23.4,24.4,24.8,30.1,29.1,28.1,42.362391,-90.21147
"642","Illinois","17087","Johnson County",2499,2417,2508,2613,3025,3236,2968,2622,2626,24.4,23.2,23.7,25.4,27.5,29.7,30.2,26.5,26.1,37.460815,-88.882962
"643","Illinois","17089","Kane County",72150,69840,70180,74620,77160,81084,80576,73288,68410,22.4,21.2,20.8,21.9,22.3,23.4,22.8,20.5,18.9,41.939594,-88.42804
"644","Illinois","17091","Kankakee County",17420,18940,19890,22630,22250,23001,22338,22035,20220,22.9,24.6,25.4,28.6,27.6,28.5,27.6,27,24.8,41.139494,-87.861125
"645","Illinois","17093","Kendall County",10750,10880,11330,14180,16560,16910,15784,14817,16970,21,19.3,18,21.3,23.3,24,20.6,19,21.5,41.58814,-88.430626
"646","Illinois","17095","Knox County",10510,10670,10320,10410,11370,12773,12855,11589,10550,25.8,26.4,25.6,26.3,28.7,32.5,31.8,28.7,26.2,40.930941,-90.213761
"647","Illinois","17097","Lake County",91050,91640,97040,97870,101500,92988,95104,94919,100200,19.2,18.9,19.7,20,20.5,18.9,19.4,19.3,20.3,42.326444,-87.436118
